id,name,city,lon,lat,date,PM2.5,row_index,col_index,proj_x,proj_y,dem,w10,d10,t2m,sp,tp,blh,e,r,u10,v10,aod_sat,ndvi
1001A,万寿西宫,北京,116.366,39.8673,20180531,60.548387096774185,2201.0,6867.0,1650847.5516331228,1370268.3659701913,46,1.3074177503585815,35.78990173339844,293.96722412109375,100044.1875,0.0006342334090732038,164.84786987304688,-1.0240701158181764e-05,44.9395866394043,0.7645775675773621,1.0605480670928955,0.6600396633148193,3932
1002A,定陵,北京,116.17,40.2865,20180531,57.22413793103448,2134.0,6835.0,1625003.973250138,1416959.9639730146,420,0.03374314308166504,167.2140350341797,291.5908203125,96484.0546875,0.0004495815373957157,101.14968872070312,-9.759199201653246e-06,51.03401565551758,0.007470510434359312,-0.03290579095482826,0.5680645108222961,7575
1003A,东四,北京,116.434,39.9522,20180531,67.25806451612904,2188.0,6877.0,1653776.7102650262,1381524.3053945734,48,1.179286241531372,29.54182243347168,294.0372009277344,100061.1953125,0.0005977741675451398,163.24063110351562,-9.279857295041438e-06,44.052452087402344,0.5814418196678162,1.025983214378357,0.683422863483429,3769
1004A,天坛,北京,116.434,39.8745,20180531,57.08064516129032,2200.0,6877.0,1655828.0445424512,1372270.097507006,45,1.3269397020339966,30.332704544067383,294.10211181640625,100167.1953125,0.0006549929385073483,175.4182891845703,-1.0557612768025137e-05,44.22692108154297,0.6701138019561768,1.1453019380569458,0.6530625224113464,4337
1005A,农展馆,北京,116.473,39.9716,20180531,57.935483870967744,2185.0,6884.0,1656224.6805005262,1384491.8424875431,40,1.1635879278182983,25.143386840820312,294.1402893066406,100108.0390625,0.0006005297182127833,169.09698486328125,-9.207518814946525e-06,43.35215377807617,0.4943774938583374,1.053341269493103,0.6534764766693115,3757
1006A,官园,北京,116.361,39.9425,20180531,63.17741935483871,2189.0,6866.0,1648488.6803659305,1379142.1766624278,55,1.1572989225387573,36.498653411865234,293.8524169921875,99962.5546875,0.000574635632801801,150.5792999267578,-8.978679034044035e-06,45.03292465209961,0.6883484125137329,0.9303317666053772,0.6905981302261353,3015
1007A,海淀区万柳,北京,116.315,39.9934,20180531,61.32258064516129,2181.0,6858.0,1643658.0833643028,1384435.6792709937,52,1.0416783094406128,42.239139556884766,293.6382751464844,99854.296875,0.0005162368179298937,131.44093322753906,-7.897235263953917e-06,45.847103118896484,0.7002269625663757,0.7712171673774719,0.6387071013450623,4367
1008A,顺义新城,北京,116.72,40.1438,20180531,64.33870967741936,2157.0,6923.0,1670359.5101822412,1409179.4017513914,32,0.9411296844482422,181.5990447998047,293.96856689453125,99895.2578125,0.0005545158055610955,181.5193328857422,-1.0372043107054196e-05,44.09885787963867,-0.026260441169142723,0.9407632350921631,0.5772992968559265,5107
1009A,怀柔镇,北京,116.644,40.3937,20180531,53.4,2117.0,6911.0,1657945.0195431802,1437655.3173973674,169,0.44594132900238037,7.096070766448975,292.3923034667969,98038.40625,0.000377532938728109,151.97923278808594,-9.898499229166191e-06,47.050193786621094,0.05508695915341377,0.44252580404281616,0.5859349370002747,6820
1010A,昌平镇,北京,116.23,40.1952,20180531,57.74193548387096,2149.0,6845.0,1631926.7826818542,1407069.146014603,57,0.37005093693733215,51.07680130004883,292.99658203125,99303.5546875,0.0004565902636386454,108.52178192138672,-9.017333468364086e-06,48.904388427734375,0.28788939118385315,0.23250246047973633,0.6447307467460632,3516
1011A,奥体中心,北京,116.407,40.0031,20180531,63.016129032258064,2180.0,6873.0,1650384.2993514207,1387133.4197281853,47,1.0620168447494507,31.668071746826172,293.92333984375,99948.1953125,0.0005495395162142813,150.18984985351562,-8.361133041034918e-06,44.37042236328125,0.5575414299964905,0.9038956761360168,0.6569844484329224,3611
1012A,古城,北京,116.225,39.9279,20180531,70.70689655172414,2192.0,6844.0,1638539.229021886,1375127.8940789944,66,1.1531296968460083,48.936073303222656,293.1433410644531,99091.640625,0.0005386134725995362,127.50602722167969,-8.546909157303162e-06,47.18928146362305,0.8694143891334534,0.7575135827064514,0.6142917275428772,3311
1015A,勤俭路,天津,117.145,39.1654,20180531,48.145161290322584,2314.0,6991.0,1729155.5632773454,1300184.178096506,6,1.7647944688796997,1.0522358417510986,293.8616638183594,100898.96875,0.0006473285611718893,246.66751098632812,-2.824312832672149e-05,48.20143508911133,0.032403379678726196,1.764496922492981,0.6430677175521851,3335
1017A,大直沽八号路,天津,117.237,39.1082,20180531,53.62903225806453,2323.0,7006.0,1737780.1380324084,1295015.2827556727,6,1.8025130033493042,180.44894409179688,293.6654052734375,100864.5546875,0.000675976334605366,243.35977172851562,-3.58219986082986e-05,49.46091842651367,-0.01413010898977518,1.8024576902389526,0.6382416486740112,2473
1018A,前进路,天津,117.202,39.0927,20180531,46.21666666666667,2325.0,7000.0,1735514.7479055552,1292556.452844512,7,1.8131294250488281,180.36798095703125,293.6814270019531,100865.4375,0.0006906577036716044,242.8263702392578,-3.5584482247941196e-05,49.27531051635742,-0.011660823598504066,1.8130919933319092,0.6712985634803772,2732
1019A,北辰科技园区,天津,117.1837,39.2133,20180531,49.161290322580655,2306.0,6997.0,1730819.4129383704,1306554.0854461065,4,1.7230091094970703,1.6997828483581543,293.8913269042969,100894.109375,0.0006130876718088984,248.86727905273438,-2.5210334570147097e-05,48.035701751708984,0.051107149571180344,1.7222509384155273,0.6262906193733215,3056
1021A,跃进路,天津,117.307,39.0877,20180531,47.58064516129032,2326.0,7017.0,1743718.470043329,1293821.8519381785,4,1.8203047513961792,181.19325256347656,293.5332946777344,100878.0078125,0.0006876899278722703,240.34495544433594,-3.8361984479706734e-05,50.16752243041992,-0.03790867328643799,1.8199100494384766,0.5767475366592407,2982
1024A,永明路,天津,117.457,38.8394,20180531,42.62903225806452,2366.0,7041.0,1762091.4457384683,1267036.9345306552,3,2.1210594177246094,184.34310913085938,293.05645751953125,100926.265625,0.0009895972907543182,224.37567138671875,-5.2189228881616145e-05,52.154266357421875,-0.16062073409557343,2.11496901512146,0.5704514384269714,3283
1027A,团泊洼,天津,117.157,38.9194,20180531,47.41666666666666,2353.0,6993.0,1736776.7607285145,1271187.8960052915,2,1.9105318784713745,182.30076599121094,293.42340087890625,100930.140625,0.0008361708023585379,229.99049377441406,-3.807573739322834e-05,50.00009536743164,-0.07669539004564285,1.908991813659668,0.582051694393158,3053
1029A,职工医院,石家庄,114.4548,38.0513,20180531,50.193548387096776,2492.0,6561.0,1548715.8370152607,1122720.941225226,80,0.9799668788909912,18.023244857788086,293.44091796875,99439.4296875,0.0009760956163518131,145.20855712890625,-1.574224552314263e-05,56.39167022705078,0.3031960427761078,0.9318837523460388,0.5791389346122742,3434
1030A,高新区,石家庄,114.6046,38.0398,20180531,58.20967741935484,2494.0,6585.0,1560759.8749639106,1123720.5251976768,67,1.0784817934036255,0.4092732071876526,293.7807312011719,99936.375,0.0009055546834133565,175.05235290527344,-1.7718353774398565e-05,54.274559020996094,0.007714829873293638,1.0784542560577393,0.5914620161056519,2622
1031A,西北水源,石家庄,114.5019,38.1398,20180531,58.67241379310346,2478.0,6568.0,1550294.1407386851,1134014.1409644291,75,0.8564847111701965,7.281492710113525,293.58026123046875,99758.234375,0.0009071793174371123,142.52731323242188,-1.5449366401298903e-05,56.130367279052734,0.10855108499526978,0.8495779633522034,0.5959060192108154,3426
1032A,西南高教,石家庄,114.4586111,38.00583333,20180531,47.112903225806456,2499.0,6561.0,1550102.7979398533,1117361.25585124,73,1.031822919845581,20.34044075012207,293.41790771484375,99352.7265625,0.0010060126660391688,149.97901916503906,-1.6042753486544825e-05,56.16354751586914,0.35864901542663574,0.9674861431121826,0.6050997376441956,3484
1033A,世纪公园,石家庄,114.53305559999998,38.01777778,20180531,52.306451612903224,2497.0,6573.0,1555668.2103117423,1119961.434802212,72,1.0391830205917358,10.380499839782715,293.66973876953125,99807.6171875,0.0009592180722393095,161.81956481933594,-1.688683551037684e-05,54.99892044067383,0.18723943829536438,1.0221755504608154,0.6182910799980164,4096
1034A,人民会堂,石家庄,114.5214,38.0524,20180531,53.05,2492.0,6571.0,1553921.371897637,1123903.547914651,78,1.008002758026123,9.976201057434082,293.642822265625,99805.84375,0.0009432737715542316,155.7996826171875,-1.645448719500564e-05,55.34832763671875,0.17462046444416046,0.9927624464035034,0.5802624821662903,2722
1035A,封龙山,石家庄,114.3541,37.9097,20180531,47.37037037037037,2515.0,6545.0,1544172.496295803,1104256.71834455,326,1.1244817972183228,35.88022232055664,292.6658935546875,97984.6640625,0.0011067258892580867,146.37274169921875,-1.5381536286440678e-05,58.07744598388672,0.6590337753295898,0.9111167788505554,0.570124089717865,7612
1036A,供销社,唐山,118.1662,39.6308,20180531,44.548387096774185,2239.0,7155.0,1794193.9797899441,1373720.0724208166,30,1.5837829113006592,181.6364288330078,292.54974365234375,100678.6953125,0.0002893228083848953,209.7637939453125,-1.4295184882939793e-05,50.81452178955078,-0.04522988572716713,1.583137035369873,0.6520656943321228,2838
1037A,雷达站,唐山,118.144,39.643,20180531,36.967741935483865,2237.0,7151.0,1792159.3766959591,1374761.4641271757,30,1.5602483749389648,182.03871154785156,292.60137939453125,100661.1171875,0.00028911588015034795,210.2390899658203,-1.4307160199678037e-05,50.52486038208008,-0.05550067126750946,1.5592608451843262,0.6121969819068909,3050
1038A,物资局,唐山,118.1853,39.6407,20180531,44.41935483870968,2238.0,7158.0,1795363.4933915236,1375242.7118771875,35,1.5791934728622437,181.7021942138672,292.5272216796875,100663.5546875,0.00028601588564924896,209.5079345703125,-1.429465464752866e-05,50.986656188964844,-0.04690791293978691,1.5784966945648193,0.6351107358932495,4499
1039A,陶瓷公司,唐山,118.2185,39.6679,20180531,46.29032258064516,2233.0,7163.0,1797109.8688146814,1379074.4044349259,31,1.5435806512832642,182.20945739746094,292.51287841796875,100611.703125,0.0002757968904916197,209.37843322753906,-1.4375217688211706e-05,51.24502182006836,-0.0595070980489254,1.5424331426620483,0.5754179358482361,2436
1040A,十二中,唐山,118.1838,39.65782,20180531,43.064516129032256,2235.0,7157.0,1794761.4946568122,1377245.0896162903,23,1.551467776298523,182.15147399902344,292.55670166015625,100633.375,0.00028248131275177,209.76437377929688,-1.4322049537440762e-05,50.87631607055664,-0.058241795748472214,1.550374150276184,0.6757453680038452,2700
1041A,小山,唐山,118.1997,39.6295,20180531,49.32258064516129,2239.0,7160.0,1796777.2378540647,1374178.0916289124,33,1.5907188653945923,181.52037048339844,292.50115966796875,100670.578125,0.00028613387257792056,209.244384765625,-1.4277501577453222e-05,51.1264533996582,-0.042202968150377274,1.5901589393615723,0.6020804047584534,3989
1042A,北戴河环保局,秦皇岛,119.5259,39.8283,20180531,23.266666666666666,2208.0,7372.0,1891417.6821072449,1422602.2703801743,3,0.8695554733276367,35.46795654296875,289.6792297363281,101043.609375,0.00011105144949397072,126.02574920654297,-1.2882065675512422e-05,58.447025299072266,0.5045444965362549,0.7082101106643677,0.5735313892364502,3222
1043A,第一关,秦皇岛,119.7624,40.0181,20180531,21.88333333333333,2177.0,7410.0,1903496.8672210225,1449599.4096933184,33,0.7771216630935669,57.85131072998047,289.9511413574219,100386.5625,0.00011289046960882843,149.45127868652344,-3.101441325270571e-05,61.254764556884766,0.6579533219337463,0.41354018449783325,0.5436230897903442,2798
1044A,监测站,秦皇岛,119.6023,39.9567,20180531,38.2258064516129,2187.0,7384.0,1893305.168637002,1439250.0913043136,16,0.5505333542823792,53.699073791503906,289.7630615234375,100062.75,0.00011088299652328715,124.20307922363281,-1.6497466276632622e-05,59.92779541015625,0.4436761140823364,0.32594242691993713,0.5996195673942566,2047
1046A,建设大厦,秦皇岛,119.5369,39.9419,20180531,37.2258064516129,2189.0,7374.0,1888823.6312204087,1436241.9792512425,8,0.5592268705368042,45.55795669555664,289.72943115234375,100113.5625,0.00011272938718320802,117.27164459228516,-1.0891626516240649e-05,59.34916305541992,0.3992558717727661,0.3915729820728302,0.6074397563934326,2653
1047A,环保局,邯郸,114.5129,36.61763,20180531,46.564516129032256,2721.0,6570.0,1587617.0564496485,953010.0447816385,57,0.6345809102058411,187.94851684570312,295.02142333984375,99944.5546875,0.0004854534927289933,248.85476684570312,-1.603833879926242e-05,54.91691970825195,-0.08774935454130173,0.6284846663475037,0.7024873495101929,3086
1048A,东污水处理厂,邯郸,114.5426,36.6164,20180531,38.8,2721.0,6575.0,1590031.0550574411,953344.1355310014,55,0.6875554919242859,192.5353546142578,295.0719909667969,100047.6875,0.0004763413453474641,251.3465118408203,-1.5844951121835038e-05,54.6977653503418,-0.14922407269477844,0.671166718006134,0.623285710811615,3397
1049A,矿院,邯郸,114.5035,36.5776,20180531,54.048387096774185,2728.0,6569.0,1587819.0368633494,948101.7257358053,58,0.6377959847450256,192.67642211914062,295.0424499511719,99944.765625,0.00047868446563370526,252.38082885742188,-1.6382204194087535e-05,55.09861755371094,-0.13995692133903503,0.6222505569458008,0.6817705631256104,3501
1050A,丛台公园,邯郸,114.4965,36.61981,20180531,48.903225806451616,2721.0,6567.0,1586248.1914189043,953004.2219524655,60,0.6050016283988953,184.82594299316406,294.97845458984375,99853.1328125,0.0004910006537102163,247.24331665039062,-1.6129237337736413e-05,55.0446891784668,-0.0508967861533165,0.6028569340705872,0.6310968399047852,2825
1051A,游泳馆,保定,115.493,38.8632,20180531,51.37096774193547,2362.0,6727.0,1609736.564829013,1236167.1215982502,21,1.029139757156372,26.369037628173828,293.6469421386719,100445.453125,0.001062394236214459,150.99722290039062,-1.613312997506e-05,50.17531204223633,0.45708075165748596,0.9220659732818604,0.6077584028244019,2774
1052A,华电二区,保定,115.5223,38.8957,20180531,47.75806451612904,2357.0,6732.0,1611183.9339425713,1240519.240765485,17,1.055468201637268,27.84829330444336,293.6809997558594,100485.6171875,0.001022197655402124,150.4925079345703,-1.6738911654101685e-05,50.04226303100586,0.49302971363067627,0.9332389235496521,0.5876588821411133,3524
1053A,接待中心,保定,115.4713,38.9108,20180531,46.20967741935484,2354.0,6723.0,1606857.7950902996,1241483.1610820852,19,0.9763140678405762,36.16457748413086,293.6039123535156,100431.4765625,0.0010434855939820409,143.692138671875,-1.5523013644269668e-05,50.6793098449707,0.5761147737503052,0.7882137298583984,0.589189887046814,4119
1054A,地表水厂,保定,115.4612,38.8416,20180531,48.91071428571429,2365.0,6722.0,1607818.6676709165,1233073.10335903,21,1.0008811950683594,26.305356979370117,293.61138916015625,100410.8125,0.001099098357371986,150.79566955566406,-1.6086014511529356e-05,50.53801727294922,0.443533331155777,0.897240936756134,0.6127117276191711,2515
1055A,胶片厂,保定,115.442,38.8756,20180531,40.83870967741935,2360.0,6719.0,1605476.6378987944,1236810.091564384,24,0.9658455848693848,33.40509033203125,293.6029968261719,100412.734375,0.0010812922846525908,145.96621704101562,-1.5668374544475228e-05,50.90499496459961,0.531737208366394,0.8062959909439087,0.5855445861816406,2740
1056A,监测站,保定,115.5214,38.8707,20180531,50.354838709677416,2361.0,6731.0,1611745.5317122089,1237526.1719943746,18,1.0580253601074219,25.00516128540039,293.67169189453125,100467.921875,0.0010424400679767132,152.5868377685547,-1.6747026165830903e-05,50.03019332885742,0.44721508026123047,0.9588620662689209,0.5957460403442383,3400
1057A,人民公园,张家口,114.8985,40.8367,20180531,27.322580645161292,2046.0,6632.0,1515272.3927568016,1462367.0430734341,920,1.0161546468734741,285.9510803222656,287.605712890625,89842.015625,0.0009889238281175494,130.5545654296875,-6.243419193197042e-06,47.18484115600586,-0.9770446419715881,-0.2792026996612549,0.43471112847328186,5978
1059A,五金库,张家口,114.8814,40.8115,20180531,29.44642857142857,2050.0,6629.0,1514606.675558561,1459087.9004313564,765,0.9985835552215576,285.6142883300781,288.0517578125,90459.046875,0.0009712697938084602,127.0628890991211,-6.238959485926898e-06,46.78190612792969,-0.9617459177970886,-0.2687264382839203,0.49243202805519104,1528
1060A,世纪豪园,张家口,114.9032,40.7688,20180531,37.82258064516129,2057.0,6632.0,1517293.9878300074,1454314.902552071,732,0.9830862283706665,283.35736083984375,288.5513000488281,91091.1015625,0.000937995093408972,121.23818969726562,-6.284061782935169e-06,46.3906364440918,-0.9565039873123169,-0.22706541419029236,0.45740392804145813,2317
1061A,北泵房,张家口,114.904,40.8725,20180531,32.37096774193548,2040.0,6633.0,1514805.6162883672,1466735.844796198,902,1.0256937742233276,286.4426574707031,287.0605163574219,89077.109375,0.0010192599147558212,135.60157775878906,-6.220294835657114e-06,47.65618896484375,-0.9837623238563538,-0.2902745008468628,0.484866201877594,3425
1062A,铁路,承德,117.9664,40.9161,20180531,19.322580645161292,2034.0,7123.0,1742668.2442399214,1522703.1278227607,361,0.7266243100166321,197.1686248779297,290.54376220703125,95259.84375,0.0002418858784949407,181.04641723632812,-8.388586138607934e-06,44.93974304199219,-0.21448250114917755,0.6942479014396667,0.5315333008766174,4541
1063A,中国银行,承德,117.9525,40.9843,20180531,18.951612903225808,2023.0,7120.0,1739704.030690676,1530562.8875486013,372,0.6399528980255127,202.11326599121094,290.05694580078125,94609.5625,0.00024413892242591828,173.44711303710938,-7.658466529392172e-06,44.477142333984375,-0.2408963143825531,0.5928816795349121,0.5104131102561951,4855
1064A,开发区,承德,117.963,40.9359,20180531,26.887096774193548,2030.0,7122.0,1741854.7753274036,1524996.1113907457,404,0.6951314210891724,198.96022033691406,290.36102294921875,95014.7890625,0.00024250273418147117,178.27037048339844,-8.1261232480756e-06,44.778236389160156,-0.225849911570549,0.6574188470840454,0.4814492166042328,5530
1065A,文化中心,承德,117.8184,40.9733,20180531,22.677419354838708,2024.0,7099.0,1730033.0550083139,1526887.4904631914,447,0.6047652959823608,6.5863471031188965,290.24652099609375,94922.3125,0.0002994565002154559,161.77577209472656,-7.101886239979649e-06,44.76104736328125,0.06936461478471756,0.6007741689682007,0.5161116123199463,2966
1066A,离宫,承德,117.9384,41.0112,20180531,23.85483870967742,2018.0,7118.0,1737894.4564492642,1533510.946496051,384,0.5962811708450317,203.97999572753906,289.8551940917969,94292.90625,0.00024818265228532255,170.53431701660156,-7.434875442413613e-06,44.3973503112793,-0.2423325479030609,0.5448175668716431,0.5026364922523499,4646
1067A,药材公司,廊坊,116.6838,39.5178,20180531,41.11290322580645,2257.0,6917.0,1684335.0225340093,1334059.1526020237,17,1.3792893886566162,16.299089431762695,294.4568786621094,100711.46875,0.0007075861794874072,245.4993896484375,-1.4071159057493787e-05,45.882164001464844,0.3870886266231537,1.323858618736267,0.6488929390907288,2773
1068A,开发区,廊坊,116.7729,39.5747,20180531,40.532258064516135,2248.0,6932.0,1689617.9894301384,1342357.1982228004,14,1.4243443012237549,14.829618453979492,294.49017333984375,100758.9765625,0.0007437297608703375,245.70655822753906,-1.4664465197711252e-05,45.911842346191406,0.3645443618297577,1.3769038915634155,0.6418606638908386,4300
1070A,北华航天学院,廊坊,116.7464,39.5343,20180531,39.30645161290322,2255.0,6927.0,1688676.4962491558,1337096.2980085686,15,1.39286208152771,15.249324798583984,294.4750061035156,100727.7265625,0.0007143874536268413,251.3300323486328,-1.4268864106270485e-05,46.08709716796875,0.3663399815559387,1.3438228368759155,0.6106159090995789,3521
1071A,沧县城建局,沧州,116.8854,38.2991,20180531,38.564516129032256,2452.0,6950.0,1732520.5748827572,1192780.4904787843,9,1.7522222995758057,192.06980895996094,293.2362365722656,100807.1484375,0.0013437607558444142,201.97215270996094,-1.5051660739118233e-05,50.1380615234375,-0.3663845658302307,1.7134891748428345,0.5537684559822083,3115
1072A,电视转播站,沧州,116.8584,38.3254,20180531,39.19354838709677,2448.0,6945.0,1729712.7047298958,1195425.203871742,10,1.752724528312683,191.34359741210938,293.2844543457031,100815.5859375,0.0013119601644575596,202.92234802246094,-1.4984356312197633e-05,50.142147064208984,-0.3447377383708954,1.7184875011444092,0.6004632711410522,3731
1073A,市环保局,沧州,116.8709,38.3228,20180531,41.12903225806452,2448.0,6947.0,1730755.2991836588,1195336.8228236903,9,1.7558380365371704,191.4253692626953,293.26788330078125,100817.8359375,0.0013176511274650693,202.59486389160156,-1.4983222172304522e-05,50.12480163574219,-0.3478061258792877,1.7210456132888794,0.5878685116767883,2847
1074A,电机北厂,衡水,115.6951,37.7575,20180531,37.56896551724138,2539.0,6759.0,1653497.2900325633,1107962.6937265103,22,1.263228178024292,205.63690185546875,294.27960205078125,100660.2578125,0.0010895263403654099,247.2586212158203,-1.8989143427461386e-05,51.257205963134766,-0.5465414524078369,1.1388757228851318,0.6162564754486084,3574
1075A,市监测站,衡水,115.6426,37.7379,20180531,39.032258064516135,2542.0,6751.0,1649861.2772532338,1104751.1091996492,22,1.252073884010315,206.16461181640625,294.3062744140625,100636.96875,0.0010553185129538178,250.51736450195312,-1.9491437342367135e-05,51.16529846191406,-0.5520886182785034,1.1237825155258179,0.6003589034080505,3188
1076A,市环保局,衡水,115.6906,37.739,20180531,44.112903225806456,2542.0,6758.0,1653612.9397437049,1105688.7035881425,23,1.2686874866485596,205.91873168945312,294.2900085449219,100649.5078125,0.0010694031370803714,248.32522583007812,-1.911143772304058e-05,51.242889404296875,-0.5545228719711304,1.141083836555481,0.6092629432678223,2371
1077A,达活泉,邢台,114.4821,37.0967,20180531,43.61666666666667,2645.0,6565.0,1573699.916514014,1009473.4672055867,73,0.7749021053314209,57.05691146850586,294.2635192871094,99496.359375,0.0005759246414527297,213.39520263671875,-1.5480716683669016e-05,53.9709587097168,0.6502940654754639,0.4214153289794922,0.5871514678001404,2840
1078A,邢师高专,邢台,114.5261,37.0533,20180531,38.63333333333333,2652.0,6572.0,1578246.8061086053,1005016.6899581857,66,0.6978703141212463,44.05473709106445,294.5148010253906,99786.4140625,0.0005644020857289433,223.3634033203125,-1.5692217857576907e-05,53.61359405517578,0.48524948954582214,0.5015535354614258,0.6034542918205261,2884
1079A,路桥公司,邢台,114.5331,37.0964,20180531,42.95,2645.0,6573.0,1577772.3796544997,1010255.6452998648,63,0.710615873336792,44.35409164428711,294.47222900390625,99809.2421875,0.0005583920865319669,221.05987548828125,-1.5592777344863862e-05,53.51785659790039,0.496773362159729,0.5081251859664917,0.6193677186965942,4713
1080A,市环保局,邢台,114.4854,37.062,20180531,42.33870967741935,2650.0,6566.0,1574792.4509487925,1005398.5112661044,76,0.7471966743469238,54.33648681640625,294.3604431152344,99583.8828125,0.0005746968672610819,216.9716033935547,-1.5628571418346837e-05,53.907527923583984,0.607051432132721,0.4356505572795868,0.5837686657905579,2139
1081A,尖草坪,太原,112.522,37.8873,20180531,52.74074074074074,2518.0,6252.0,1400116.059778645,1074131.8859409844,789,0.41196832060813904,212.2919464111328,291.04083251953125,90685.8515625,0.0008364127716049552,194.39002990722656,-8.813849490252323e-06,44.88794708251953,-0.22008152306079865,0.3482556939125061,0.4327890872955322,2973
1083A,上兰,太原,112.434,38.0108,20180531,42.403225806451616,2498.0,6237.0,1390508.729158474,1087657.9898207597,887,0.46951723098754883,182.7335205078125,289.5113525390625,88623.171875,0.0008085613371804357,180.5787811279297,-8.102594620140735e-06,45.95782470703125,-0.02239079400897026,0.4689830243587494,0.3458552956581116,4555
1084A,晋源,太原,112.469,37.7124,20180531,64.58333333333333,2546.0,6243.0,1399684.6395390064,1052458.5448626748,770,0.324577271938324,217.52967834472656,290.9793701171875,89885.4375,0.0008899315726011992,211.20245361328125,-9.482081622991245e-06,43.0650520324707,-0.19771850109100342,0.2574059069156647,0.390640527009964,2692
1085A,小店,太原,112.5583,37.7394,20180531,42.06,2542.0,6257.0,1406180.4717640025,1056962.193499744,773,0.5131030678749084,224.841796875,291.6249694824219,91077.7109375,0.0008632238605059683,214.64805603027344,-9.654782843426801e-06,43.54136276245117,-0.3618070185184479,0.3638274371623993,0.39769476652145386,2845
1086A,桃园,太原,112.5369,37.8692,20180531,59.27777777777778,2521.0,6254.0,1401684.5496889006,1072179.3226175813,788,0.4217306971549988,216.5238800048828,291.0952453613281,90694.0390625,0.0008423832478001714,196.90147399902344,-8.917223567550536e-06,44.78797912597656,-0.2509899437427521,0.338911235332489,0.3926217257976532,2486
1087A,坞城,太原,112.57,37.8195,20180531,51.0,2529.0,6259.0,1405376.2520207795,1066708.0299980517,786,0.4646400809288025,226.0906219482422,291.305419921875,90851.828125,0.0008616447448730469,204.52613830566406,-9.223568667948712e-06,44.48835754394531,-0.33473652601242065,0.3222450315952301,0.4036492109298706,2296
1088A,南寨,太原,112.549,37.9854,20180531,40.983870967741936,2502.0,6256.0,1400132.1166841032,1086251.9171368892,822,0.5469910502433777,204.21351623535156,290.8474426269531,90714.015625,0.0007570247980765998,181.58187866210938,-8.1202751971432e-06,46.23049545288086,-0.22433562576770782,0.49887144565582275,0.36737605929374695,4399
1089A,金胜,太原,112.488,37.7805,20180531,52.75,2535.0,6246.0,1399725.9250979184,1060873.3968020973,787,0.2832666039466858,221.6109619140625,290.75750732421875,89846.3203125,0.000892357318662107,205.44552612304688,-9.473771569901146e-06,43.52829360961914,-0.18810410797595978,0.21179428696632385,0.37333136796951294,1957
1090A,呼市一监,呼和浩特,111.651,40.7579,20180531,27.29032258064516,2059.0,6112.0,1272205.141415575,1406838.2924259377,1032,0.5438544154167175,338.71551513671875,289.60968017578125,88593.7421875,0.0021103147882968187,191.3355712890625,-1.0768071661004797e-05,31.963769912719727,-0.19745998084545135,-0.5067417621612549,0.4967725872993469,2716
1091A,小召,呼和浩特,111.658,40.8033,20180531,32.59677419354839,2052.0,6113.0,1271799.1821574834,1412395.0289789485,1047,0.6037393808364868,349.5126037597656,289.5343017578125,88309.9375,0.0021216582972556353,193.58810424804688,-1.0575954547675792e-05,32.20696258544922,-0.10994388908147812,-0.5936443209648132,0.49026715755462646,2503
1092A,兴松小区,呼和浩特,111.659,40.8452,20180531,32.45161290322581,2045.0,6113.0,1271011.1703736826,1417452.956787858,1065,0.6392942667007446,357.4062194824219,288.8722229003906,87242.7109375,0.0021258105989545584,195.79702758789062,-1.037524634739384e-05,32.468379974365234,-0.02898893877863884,-0.6386366486549377,0.5107069611549377,2884
1093A,糖厂,呼和浩特,111.608,40.8144,20180531,30.38333333333333,2050.0,6105.0,1267790.1867455556,1413085.4135992068,1053,0.6527803540229797,358.03533935546875,289.1622314453125,87657.859375,0.0021683445665985346,193.87176513671875,-1.0450286936247721e-05,32.39496612548828,-0.022438229992985725,-0.6523945927619934,0.5054290890693665,1794
1094A,如意水处理厂,呼和浩特,111.751,40.8369,20180531,34.95161290322581,2046.0,6128.0,1278134.4550458665,1417647.0342125262,1068,0.5601069331169128,343.6562194824219,289.2272644042969,87895.6796875,0.0020329307299107313,196.1651611328125,-1.0526997357374057e-05,32.255226135253906,-0.15765951573848724,-0.5374600291252136,0.46378079056739807,2583
1095A,二十九中,呼和浩特,111.7277,40.8062,20180531,25.306451612903228,2051.0,6124.0,1277009.1978736666,1413648.1735191965,1054,0.5518290400505066,340.2467346191406,289.5353088378906,88393.109375,0.002054853131994605,194.38160705566406,-1.064128809957765e-05,32.08354568481445,-0.18654471635818481,-0.5193422436714172,0.47764211893081665,3204
1096A,工大金川校区,呼和浩特,111.551,40.7866,20180531,42.5,2054.0,6096.0,1264049.6348043713,1409003.4309673298,1061,0.6537572741508484,179.4567108154297,289.109130859375,87521.9375,0.0022070324048399925,192.21737670898438,-1.0487728104635607e-05,32.40373611450195,0.0062627107836306095,-0.6537272930145264,0.462350457906723,2621
1097A,化肥厂生活区,呼和浩特,111.717,40.7612,20180531,29.20967741935484,2058.0,6123.0,1277130.917214611,1408091.7651708913,1043,0.5095143914222717,327.46160888671875,289.5611877441406,88598.515625,0.0020480335224419832,192.13052368164062,-1.0833848136826418e-05,31.805158615112305,-0.2740822434425354,-0.4295158386230469,0.4923442006111145,2354
1098A,森林路,沈阳,123.6836,41.9339,20180531,23.225806451612907,1871.0,8037.0,2129556.9804676403,1755591.9995222648,125,1.2945544719696045,8.762541770935059,289.5061340332031,99773.4453125,0.0011339704506099224,339.68743896484375,-9.169369150185958e-06,51.031700134277344,0.1972062885761261,1.2794455289840698,0.5124036073684692,5626
1099A,浑南东路,沈阳,123.535,41.7561,20180531,40.79032258064515,1899.0,8014.0,2125064.2610081304,1731543.1780614024,52,1.2158310413360596,2.8965985774993896,289.5858154296875,100227.8046875,0.0012179232435300946,316.7844543457031,-1.0029209079220891e-05,51.13928985595703,0.06143828481435776,1.214277744293213,0.4995938241481781,2600
1100A,新秀街,沈阳,123.439,41.7089,20180531,32.05,1907.0,7998.0,2119763.498432587,1723938.0920975024,44,1.194543480873108,4.273552417755127,289.6962890625,100389.8046875,0.001191187766380608,315.4326171875,-1.0295223546563648e-05,50.750732421875,0.08901304751634598,1.1912224292755127,0.5259503126144409,2836
1102A,东陵路,沈阳,123.542,41.8336,20180531,27.93333333333333,1887.0,8015.0,2122856.063759939,1740776.0912912274,56,1.2453175783157349,6.5453081130981445,289.6495666503906,100207.671875,0.0011324485531076789,327.3791198730469,-9.680177754489705e-06,50.64961624145508,0.14194801449775696,1.2372010946273804,0.5076995491981506,3261
1103A,陵东街,沈阳,123.428,41.8472,20180531,28.45,1885.0,7996.0,2114140.964719078,1739912.2245709177,50,1.2516651153564453,10.215607643127441,289.8487854003906,100340.1953125,0.0010252001229673624,334.6831970214844,-1.0092351658386178e-05,49.56360626220703,0.22198009490966797,1.2318240404129028,0.5529890656471252,5246
1104A,文化路,沈阳,123.41,41.765,20180531,35.88709677419355,1898.0,7994.0,2115706.350295917,1729888.8204690842,43,1.2100580930709839,7.814849853515625,289.84375,100388.6171875,0.0011043221456930041,326.12469482421875,-1.0635134458425455e-05,49.944217681884766,0.16453006863594055,1.1988204717636108,0.5297361612319946,2759
1105A,小河沿,沈阳,123.478,41.7775,20180531,36.903225806451616,1896.0,8004.0,2120191.0304577868,1732819.7009249916,48,1.2155673503875732,6.0642547607421875,289.7445068359375,100314.59375,0.001142115332186222,323.1778564453125,-1.0358597137383185e-05,50.41656494140625,0.1284128576517105,1.2087655067443848,0.5605154037475586,2687
1106A,太原街,沈阳,123.3997,41.7972,20180531,44.225806451612904,1893.0,7992.0,2113838.331602913,1733441.8707491278,47,1.220596432685852,9.560914039611816,289.90655517578125,100380.8046875,0.0010591410100460052,330.4788818359375,-1.0480917808308732e-05,49.653072357177734,0.20273064076900482,1.2036428451538086,0.5152889490127563,2103
1108A,京沈街,沈阳,123.3783,41.9228,20180531,42.61290322580645,1872.0,7989.0,2107914.5938606244,1747707.9348952635,48,1.3080923557281494,13.385238647460938,289.8514099121094,100350.921875,0.0009132891427725554,345.513916015625,-9.722243703436106e-06,48.765079498291016,0.30281102657318115,1.2725608348846436,0.5312011241912842,3128
1109A,甘井子,大连,121.6119444,38.97388889,20180531,28.435483870967737,2344.0,7706.0,2076360.8907611156,1364078.9857954578,23,1.732724666595459,6.9096455574035645,287.9905700683594,100610.4140625,0.0009023738675750792,174.5856475830078,-1.568894731462933e-05,65.47335815429688,0.20844675600528717,1.720140814781189,0.5534590482711792,2701
1110A,周水子,大连,121.565,38.95111111,20180531,27.274193548387093,2348.0,7698.0,2073528.8122370872,1360414.3577281593,27,1.7112195491790771,7.258498668670654,288.0052795410156,100441.421875,0.0008793050074018538,173.67156982421875,-1.5028557754703797e-05,65.22163391113281,0.21620024740695953,1.6975070238113403,0.626954972743988,2912
1111A,星海三站,大连,121.5638889,38.885,20180531,25.258064516129032,2358.0,7698.0,2075594.4628619235,1352631.9139785515,38,1.7151061296463013,8.906442642211914,287.9744873046875,100383.0078125,0.000843533780425787,170.9142608642578,-1.3137149835529272e-05,65.09819793701172,0.2655276358127594,1.6944273710250854,0.5977187156677246,3855
1112A,青泥洼桥,大连,121.6330556,38.91194444,20180531,28.274193548387093,2354.0,7709.0,2079987.4852426234,1357256.3772669937,46,1.7593945264816284,10.059876441955566,287.9414978027344,100632.203125,0.0008616794366389513,172.1837615966797,-1.4022459254192654e-05,65.277587890625,0.30731669068336487,1.732346773147583,0.5483366847038269,1602
1113A,傅家庄,大连,121.625,38.86388889,20180531,20.306451612903224,2362.0,7708.0,2080940.2564217,1351447.2175031516,26,1.7625070810317993,10.650354385375977,287.9336242675781,100618.09375,0.0008525007287971675,170.2727813720703,-1.2687434718827717e-05,65.0592269897461,0.32572805881500244,1.7321467399597168,0.548625111579895,4635
1114A,七贤岭,大连,121.51805559999998,38.85611111,20180531,23.467741935483872,2363.0,7691.0,2073038.6283332515,1348273.9278651727,24,1.699691653251648,7.572031021118164,287.9933166503906,100296.296875,0.0008173200767487288,169.18545532226562,-1.1960044503211975e-05,65.03863525390625,0.22396565973758698,1.6848711967468262,0.6787652373313904,3381
1115A,旅顺,大连,121.2588889,38.80805556,20180531,22.822580645161292,2371.0,7649.0,2054810.7173493528,1337188.2958765752,16,1.78508722782135,182.4799346923828,287.8927307128906,100757.15625,0.0007143441471271217,166.67640686035156,-2.290816519234795e-05,64.11432647705078,-0.07723763585090637,1.78341543674469,0.5818867087364197,2649
1117A,开发区,大连,121.7769,39.0511,20180531,24.516129032258068,2332.0,7732.0,2086380.8077644263,1376633.0888619204,36,1.5076961517333984,5.957572937011719,287.6890869140625,100399.8046875,0.000978519907221198,175.13992309570312,-1.7455167835578322e-05,66.45516204833984,0.15648315846920013,1.4995535612106323,0.5535533428192139,2391
1119A,食品厂,长春,125.323,43.9167,20180531,36.53333333333333,1553.0,8300.0,2173758.544607888,2023400.3168702272,214,0.6441534161567688,13.485280990600586,287.6705017089844,98462.8515625,0.0008487647864967585,273.5077209472656,-1.1188799362571444e-05,51.804969787597656,0.15020929276943207,0.626395046710968,0.3866492807865143,2151
1120A,客车厂,长春,125.287,43.91,20180531,34.33870967741935,1554.0,8294.0,2171509.16831646,2021822.145415828,221,0.6490854024887085,13.84460163116455,287.7120666503906,98490.859375,0.0008292177226394415,276.4596252441406,-1.1163149792992044e-05,51.664329528808594,0.15531472861766815,0.6302294731140137,0.40508314967155457,2431
1121A,邮电学院,长春,125.2786,43.84,20180531,25.580645161290327,1566.0,8293.0,2173527.2858362827,2013464.1409786085,228,0.653583288192749,13.958324432373047,287.66796875,98455.8984375,0.0008499054820276797,278.7439880371094,-1.2356083971098997e-05,51.81205749511719,0.15765032172203064,0.634285032749176,0.3956104516983032,2213
1123A,园林处,长春,125.325,43.8694,20180531,26.48333333333333,1561.0,8300.0,2175657.624280038,2017923.137670369,213,0.6464307904243469,13.556187629699707,287.6288757324219,98427.90625,0.0008642246830277145,274.3479919433594,-1.188087207992794e-05,51.917213439941406,0.15151825547218323,0.6284226179122925,0.4128403663635254,1891
1124A,净月潭,长春,125.454,43.7878,20180531,15.75,1574.0,8321.0,2187664.2513397266,2011264.3528906486,242,0.6296402215957642,11.801895141601562,287.32196044921875,98110.203125,0.0009844512678682804,263.0019836425781,-1.2530450476333499e-05,52.61526107788086,0.12877559661865234,0.6163308024406433,0.3856799900531769,7001
1125A,甩湾子,长春,125.633,43.55,20180531,17.887096774193548,1612.0,8349.0,2209040.2986590653,1987533.6492459534,221,0.6984943747520447,7.659367084503174,287.1575622558594,98129.484375,0.0011614561080932617,251.62034606933594,-1.1915201866941061e-05,53.14699172973633,0.09309461712837219,0.6922627687454224,0.411111056804657,2721
1126A,经开区环卫处,长春,125.417,43.8667,20180531,29.435483870967737,1561.0,8315.0,2182147.050533095,2019648.1223987043,212,0.6332235336303711,11.892407417297363,287.4493103027344,98263.09375,0.0009333976195193827,266.5439758300781,-1.1944371181016322e-05,52.29746627807617,0.13048739731311798,0.6196330189704895,0.4039851725101471,2574
1127A,高新区管委会,长春,125.25,43.8167,20180531,19.28333333333333,1569.0,8288.0,2172404.57232605,2010111.3680676718,208,0.658303439617157,14.093829154968262,287.7054748535156,98485.5390625,0.0008401998202316463,282.0594787597656,-1.2720453014480881e-05,51.73113250732422,0.16029906272888184,0.6384885311126709,0.40440571308135986,2517
1128A,岱山公园,长春,125.217,43.85,20180531,28.43333333333333,1564.0,8283.0,2168874.9454048723,2013270.5635945862,215,0.6604276895523071,14.211191177368164,287.76702880859375,98530.203125,0.0008137954864650965,283.6724853515625,-1.1920786164409947e-05,51.52083969116211,0.16212834417819977,0.6402180790901184,0.41192588210105896,2599
1129A,岭北,哈尔滨,126.542,45.755,20180531,22.98333333333333,1259.0,8495.0,2187092.8090272066,2264692.21523977,115,0.5111218690872192,197.57162475585938,286.8857421875,99346.0390625,0.00044838234316557646,151.3280029296875,-8.546674507670105e-06,50.304161071777344,-0.15430215001106262,0.4872744679450989,0.38954636454582214,2812
1130A,松北商大,哈尔滨,126.561,45.8167,20180531,19.258064516129032,1249.0,8498.0,2185976.7878043377,2272291.92913437,117,0.4769538938999176,195.1685791015625,286.9049072265625,99442.140625,0.00044306719792075455,146.51539611816406,-8.530130799044855e-06,50.39453887939453,-0.12479615211486816,0.4603378474712372,0.41101157665252686,3099
1131A,阿城会宁,哈尔滨,126.979,45.5422,20180531,21.431034482758623,1293.0,8565.0,2224665.0119926,2249767.506890247,142,0.6848363876342773,221.42428588867188,286.5791320800781,99004.75,0.0006877988344058394,153.632080078125,-1.0259616828989238e-05,53.29027557373047,-0.4530971050262451,0.5135210752487183,0.39109572768211365,2064
1133A,太平宏伟公园,哈尔滨,126.689,45.7733,20180531,23.79032258064516,1256.0,8518.0,2196219.6563872565,2270099.222345536,127,0.598015546798706,202.2967529296875,286.7464904785156,99282.1875,0.0004749565268866718,147.01104736328125,-8.770083695708308e-06,50.826942443847656,-0.22688303887844086,0.5533052682876587,0.39666426181793213,1736
1134A,道外承德广场,哈尔滨,126.635,45.7667,20180531,18.387096774193548,1257.0,8510.0,2192863.4973412105,2268125.7508213753,130,0.5683245062828064,200.83676147460938,286.7782287597656,99315.859375,0.00046612333972007036,148.51197814941406,-8.692405572219286e-06,50.646217346191406,-0.20215123891830444,0.5311568975448608,0.39582619071006775,1474
1135A,香坊红旗大街,哈尔滨,126.685,45.7319,20180531,24.4,1263.0,8518.0,2197560.4116181214,2265196.3763690507,146,0.6363601684570312,203.91275024414062,286.7261657714844,99174.0859375,0.0004843640490435064,150.3159637451172,-8.808124221104663e-06,50.90129852294922,-0.2579382658004761,0.5817405581474304,0.3975341022014618,1788
1137A,道里建国路,哈尔滨,126.593,45.7478,20180531,26.53333333333333,1260.0,8503.0,2190785.4165470903,2264990.900120507,125,0.5519452095031738,199.98214721679688,286.81854248046875,99302.8828125,0.00046019619912840426,150.76416015625,-8.634528057882562e-06,50.483123779296875,-0.188609316945076,0.5187196135520935,0.40348246693611145,1811
1138A,平房东轻厂,哈尔滨,126.615,45.61,20180531,22.483870967741932,1282.0,8506.0,2197599.8027693084,2249456.219520363,173,0.598924994468689,206.78900146484375,286.704345703125,98914.6015625,0.0005331286229193211,161.29681396484375,-8.717219316167757e-06,51.1522216796875,-0.2699318826198578,0.534647524356842,0.39774200320243835,3132
1139A,呼兰师专,哈尔滨,126.6106,45.9819,20180531,28.32758620689655,1223.0,8506.0,2182889.8442683015,2292608.2841715645,123,0.4044366776943207,189.8523406982422,286.9582824707031,99434.2109375,0.00044041627552360296,133.62200927734375,-8.484691534249578e-06,50.614742279052734,-0.0692010223865509,0.398472398519516,0.3886806070804596,2536
1141A,普陀,上海,121.4,31.238000000000003,20180531,45.25806451612904,3582.0,7672.0,2308085.386520753,459407.16646483407,7,1.5976287126541138,235.341552734375,293.09161376953125,101065.7109375,0.0028064630459994078,297.47412109375,-2.7584850613493472e-05,83.30142974853516,-1.3141142129898071,0.9085820913314819,0.6971463561058044,3287
1142A,十五厂,上海,121.478,31.2036,20180531,48.35,3588.0,7684.0,2315832.213351281,457284.23076893116,10,1.6082849502563477,233.69602966308594,293.03228759765625,101066.2265625,0.0027568780351430178,299.37921142578125,-3.08581002173014e-05,83.41814422607422,-1.2960699796676636,0.9522515535354614,0.7052465081214905,2756
1143A,虹口,上海,121.467,31.3008,20180531,45.306451612903224,3572.0,7683.0,2311805.8025830844,468209.58806890703,7,1.6963621377944946,233.7179718017578,293.08221435546875,101065.8828125,0.0027958673890680075,304.6786193847656,-3.6805537092732266e-05,83.5001449584961,-1.3674331903457642,1.003877878189087,0.7093632817268372,3255
1144A,徐汇上师大,上海,121.412,31.1654,20180531,47.76666666666666,3594.0,7674.0,2311410.3181602997,451335.331504143,7,1.5245428085327148,235.380615234375,293.0703430175781,101061.515625,0.00277765654027462,294.3417053222656,-2.6786812668433413e-05,83.29208374023438,-1.2545889616012573,0.8661624193191528,0.6970837116241455,4244
1145A,杨浦四漂,上海,121.536,31.2659,20180531,48.96666666666667,3578.0,7694.0,2318797.2743460624,465819.56869644276,7,1.7104687690734863,232.37313842773438,293.0394592285156,101069.140625,0.0027420143596827984,307.7884216308594,-4.156619615969248e-05,83.526123046875,-1.3546690940856934,1.0443061590194702,0.6885387897491455,2525
1146A,青浦淀山湖,上海,120.978,31.0935,20180531,54.62903225806453,3605.0,7604.0,2276568.048179442,432926.7409552181,3,1.5828818082809448,245.34320068359375,293.67486572265625,101071.6875,0.002795472973957658,280.65179443359375,-4.381236431072466e-05,81.19268035888672,-1.4385371208190918,0.6603981256484985,0.7051072120666504,994
1147A,静安监测站,上海,121.425,31.2261,20180531,46.064516129032256,3584.0,7676.0,2310595.561825627,458625.3111744593,10,1.598236322402954,234.82164001464844,293.06640625,101065.203125,0.002791432896628976,298.1525573730469,-2.8878113880637102e-05,83.3423843383789,-1.3063126802444458,0.9208185076713562,0.7100642323493958,3025
1148A,浦东川沙,上海,121.703,31.1907,20180531,38.75806451612903,3590.0,7720.0,2335439.8115060236,461126.0509072857,4,2.0312252044677734,230.14181518554688,293.0574951171875,101116.640625,0.002546194940805435,317.5712585449219,-5.8494744735071436e-05,83.47744750976562,-1.5592020750045776,1.3018311262130737,0.6754053831100464,2946
1149A,浦东新区监测站,上海,121.533,31.2284,20180531,43.03333333333333,3584.0,7693.0,2319735.652350633,461434.6190017258,8,1.6742384433746338,232.4440460205078,293.0254821777344,101068.625,0.00273374211974442,305.0350341796875,-3.8165417208801955e-05,83.4874496459961,-1.3272391557693481,1.020544171333313,0.7155081629753113,3365
1150A,浦东张江,上海,121.577,31.2071,20180531,43.048387096774185,3587.0,7700.0,2324167.600693376,460024.3326441118,3,1.713832139968872,231.56976318359375,293.0300598144531,101077.6640625,0.00269677909091115,307.8285217285156,-4.3138912587892264e-05,83.48157501220703,-1.3425287008285522,1.0652873516082764,0.7223616242408752,4490
1151A,迈皋桥,南京,118.803,32.1083,20180531,39.88709677419355,3443.0,7256.0,2060789.6386423092,502334.9273583511,24,1.1453739404678345,241.62303161621094,293.8742370605469,100759.796875,0.004092566203325987,216.6019744873047,-2.3132080968935043e-05,74.24581909179688,-1.007728099822998,0.5443946123123169,0.8141733407974243,4495
1152A,草场门,南京,118.749,32.0572,20180531,32.44827586206897,3451.0,7248.0,2057669.9842058239,495264.92390740133,15,1.1274640560150146,241.35629272460938,293.9372253417969,100751.8125,0.003928647842258215,211.6934356689453,-2.3474178306059912e-05,73.93879699707031,-0.9894651174545288,0.5404941439628601,0.8197863101959229,3925
1153A,山西路,南京,118.778,32.0723,20180531,28.1,3449.0,7252.0,2059700.3019891402,497627.2417998041,16,1.137757658958435,241.26278686523438,293.91302490234375,100749.8046875,0.0039802673272788525,213.11952209472656,-2.323862281627953e-05,74.06621551513672,-0.997607409954071,0.5470573902130127,0.8064972758293152,2758
1154A,中华门,南京,118.777,32.0144,20180531,32.25,3458.0,7252.0,2061275.8993319294,490878.60417309974,17,1.149878740310669,240.10421752929688,293.9942321777344,100775.7109375,0.0038474963512271643,208.56430053710938,-2.30737841775408e-05,73.9627685546875,-0.9968505501747131,0.5731580257415771,0.8128172755241394,2688
1155A,瑞金路,南京,118.803,32.0314,20180531,39.951612903225815,3455.0,7256.0,2062997.6159002832,493399.37670294306,12,1.1579477787017822,240.1691436767578,293.95733642578125,100767.3515625,0.003913369961082935,210.48060607910156,-2.282866626046598e-05,74.09857940673828,-1.0044991970062256,0.5760420560836792,0.812511682510376,3260
1156A,玄武湖,南京,118.795,32.0775,20180531,42.24193548387097,3448.0,7255.0,2060994.7316951822,498587.9665022163,13,1.1466385126113892,241.11788940429688,293.9014587402344,100751.6953125,0.004011886194348335,213.94496154785156,-2.3068478185450658e-05,74.15777587890625,-1.0039969682693481,0.5538681745529175,0.8090353608131409,2859
1157A,浦口,南京,118.626,32.0878,20180531,31.103448275862068,3446.0,7228.0,2046347.4966355744,496252.9203487209,38,1.0410776138305664,243.40513610839844,293.8985595703125,100547.171875,0.003985172603279352,212.66831970214844,-2.1075275071780197e-05,73.80060577392578,-0.9309105277061462,0.46609893441200256,0.8053162693977356,4626
1158A,奥体中心,南京,118.737,32.0092,20180531,39.839285714285715,3459.0,7246.0,2058024.8687098427,489435.964021699,8,1.1343238353729248,240.42730712890625,294.0235290527344,100783.3828125,0.003801066428422928,207.5607452392578,-2.3284383132704534e-05,73.82007598876953,-0.9865383505821228,0.5598506331443787,0.8235976099967957,3015
1159A,仙林大学城,南京,118.907,32.105,20180531,26.7,3443.0,7273.0,2069710.8236359437,504137.400822276,25,1.2057851552963257,239.85638427734375,293.84527587890625,100645.328125,0.004211663268506527,218.49588012695312,-2.2212230760487728e-05,74.716064453125,-1.0427074432373047,0.6055402755737305,0.8229314088821411,5207
1160A,上方山,苏州,120.561,31.2472,20180531,39.935483870967744,3581.0,7538.0,2236141.5781756323,441066.2672145413,46,2.1736600399017334,245.22225952148438,294.7004699707031,100953.3828125,0.0026338170282542706,306.57818603515625,-8.71198863023892e-05,77.27129364013672,-1.9735231399536133,0.9110457897186279,0.7737709879875183,6375
1161A,南门,苏州,120.628,31.2864,20180531,50.91666666666666,3574.0,7548.0,2240662.8235815293,447114.3170125727,7,1.9123843908309937,246.54214477539062,294.3426208496094,100970.671875,0.0026623825542628765,292.1723937988281,-6.449325883295387e-05,77.82310485839844,-1.7543058395385742,0.7613312005996704,0.7897058725357056,2850
1162A,彩香,苏州,120.591,31.3019,20180531,46.32258064516129,3572.0,7543.0,2237024.9060083,448059.292827868,8,2.0130057334899902,245.87155151367188,294.4792785644531,100955.71875,0.002653500996530056,295.1557922363281,-6.827526522101834e-05,77.4745101928711,-1.8371042013168335,0.8229460120201111,0.7674757838249207,3417
1163A,轧钢厂,苏州,120.596,31.3264,20180531,43.78333333333333,3568.0,7543.0,2236698.6317590056,450999.66378941113,7,1.969403862953186,245.73263549804688,294.42633056640625,100977.09375,0.002697445685043931,292.308837890625,-6.301691610133275e-05,77.42311096191406,-1.795354962348938,0.809476375579834,0.7431248426437378,3304
1164A,吴中区,苏州,120.613,31.2703,20180531,37.854838709677416,3577.0,7546.0,2239876.5820470233,444915.2357814904,6,1.9696974754333496,246.32907104492188,294.4263000488281,100972.25,0.0026567226741462946,295.7861328125,-7.067406841088086e-05,77.73174285888672,-1.803952932357788,0.7908616065979004,0.7360084056854248,2542
1165A,苏州新区,苏州,120.543,31.2994,20180531,36.08064516129032,3572.0,7535.0,2233000.7655349635,446679.04667425464,7,2.206141233444214,244.8687744140625,294.73834228515625,100937.9375,0.0026283340994268656,301.7014465332031,-7.795107376296073e-05,76.9565200805664,-1.9972710609436035,0.9369991421699524,0.7573931813240051,3509
1166A,苏州工业园区,苏州,120.669,31.3097,20180531,43.016129032258064,3571.0,7555.0,2243447.1405840777,450737.40493197046,5,1.7977490425109863,246.59445190429688,294.1493835449219,101008.8515625,0.002687474712729454,285.0046081542969,-5.28835371369496e-05,78.2396469116211,-1.64979887008667,0.7141883969306946,0.734018087387085,3408
1167A,相城区,苏州,120.641,31.3708,20180531,38.69354838709677,3561.0,7551.0,2239173.4791178033,457147.2140130602,2,1.7599595785140991,246.01626586914062,294.1138000488281,101040.3046875,0.002799193374812603,283.5604248046875,-4.734050526167266e-05,77.85853576660156,-1.6079821586608887,0.7154378294944763,0.7409061193466187,4216
1168A,南郊,南通,120.913,31.96,20180531,42.58,3466.0,7594.0,2244017.051575991,531372.809531108,3,1.6979833841323853,238.55673217773438,293.03692626953125,101092.25,0.0033311331644654274,283.07525634765625,-3.559403558028862e-05,81.67219543457031,-1.4486199617385864,0.8858035802841187,0.7893662452697754,3756
1169A,虹桥,南通,120.86,32.0005,20180531,39.903225806451616,3460.0,7586.0,2238273.183129527,534842.8766719941,5,1.6630337238311768,238.94180297851562,293.00054931640625,101088.265625,0.0033266067039221525,280.0728759765625,-3.235940675949678e-05,81.27165222167969,-1.4246015548706055,0.8580162525177002,0.7810624241828918,2804
1170A,城中,南通,120.87,32.02,20180531,43.85483870967741,3457.0,7587.0,2238511.3181912177,537323.8459927032,7,1.6348896026611328,238.95474243164062,292.9731140136719,101087.0703125,0.0033047946635633707,278.9779357910156,-3.135420411126688e-05,81.33651733398438,-1.4006826877593994,0.8431798219680786,0.7825579047203064,2602
1172A,紫琅学院,南通,120.81,32.0417,20180531,44.403225806451616,3453.0,7578.0,2232765.324297426,538466.3995493175,5,1.5797487497329712,239.6917724609375,292.9476013183594,101083.578125,0.0033054884988814592,275.2586364746094,-2.6025762053905055e-05,80.82258605957031,-1.3638088703155518,0.7972648739814758,0.7821345925331116,3566
1173A,市环境监测站,连云港,119.176,34.5885,20180531,37.39655172413793,3046.0,7316.0,2019845.7444100445,799261.0499782427,5,1.227828025817871,227.16665649414062,292.014892578125,100912.1796875,0.00264368555508554,213.80374145507812,-1.7414213289157487e-05,71.4363021850586,-0.9003881812095642,0.8347830176353455,0.6779001355171204,2694
1177A,黄河新村,徐州,117.167,34.2761,20180531,49.11666666666667,3096.0,6995.0,1863411.970887288,722945.5328200305,39,1.2714309692382812,224.433837890625,293.66583251953125,100591.4765625,0.002375919371843338,243.12489318847656,-1.7028320144163445e-05,69.01507568359375,-0.8900890350341797,0.9078975915908813,0.7974154949188232,2761
1178A,淮塔,徐州,117.192,34.2417,20180531,42.05172413793103,3101.0,6999.0,1866405.804648619,719380.6568966939,39,1.2572968006134033,225.2613983154297,293.65203857421875,100597.734375,0.0024473946541547775,243.7615509033203,-1.692440127953887e-05,69.14456176757812,-0.8930692076683044,0.8849986791610718,0.7790268063545227,2885
1180A,新城区,徐州,117.256,34.2153,20180531,39.532258064516135,3106.0,7009.0,1872410.3711313133,717498.8860775072,37,1.2346839904785156,226.22068786621094,293.6220397949219,100651.28125,0.002516999375075102,243.81158447265625,-1.728601273498498e-05,69.23470306396484,-0.8914340734481812,0.8542774319648743,0.7649869918823242,5275
1181A,桃园路,徐州,117.244,34.2911,20180531,42.11666666666667,3094.0,7007.0,1869368.3633365422,726169.4828095917,53,1.2547179460525513,224.72610473632812,293.6554260253906,100648.0390625,0.002366138156503439,244.17250061035156,-1.789577436284162e-05,68.98871612548828,-0.8829478621482849,0.8914707899093628,0.7649469375610352,2897
1182A,农科院,徐州,117.2933,34.2778,20180531,49.451612903225815,3096.0,7015.0,1873800.7094767913,725547.0071014,38,1.2381221055984497,225.33624267578125,293.61712646484375,100659.453125,0.0024000282865017653,242.72305297851562,-1.7488535377196968e-05,69.00457763671875,-0.8805868029594421,0.8703523278236389,0.7733588218688965,3030
1184A,城东财政所,扬州,119.46,32.3878,20180531,39.766666666666666,3398.0,7362.0,2108260.3856164743,548741.6146005092,8,1.4240988492965698,237.21914672851562,293.66925048828125,100991.1953125,0.004577126353979111,245.78175354003906,-2.0633857275242917e-05,75.18212127685547,-1.1972850561141968,0.7710812091827393,0.8573116660118103,2366
1185A,市监测站,扬州,119.404,32.41,20180531,42.11666666666667,3394.0,7353.0,2102879.5372512676,550119.7312407221,12,1.4164369106292725,237.86785888671875,293.6966247558594,100962.3671875,0.004626443609595299,246.75634765625,-2.0548932297970168e-05,75.37698364257812,-1.199449896812439,0.7534012198448181,0.8180742859840393,5318
1186A,邗江监测站,扬州,119.389,32.3761,20180531,37.80645161290322,3400.0,7350.0,2102611.501712267,545861.5698812671,7,1.395430564880371,237.4358367919922,293.7386169433594,100998.5,0.00459921732544899,245.52035522460938,-2.1404690414783545e-05,75.39773559570312,-1.1760317087173462,0.7511165142059326,0.8310898542404175,3005
1188A,雪浪,无锡,120.269,31.4867,20180531,35.016666666666666,3542.0,7491.0,2203891.3660522634,462118.09734928893,4,2.199066162109375,240.64369201660156,295.07415771484375,100902.390625,0.0027430446352809668,319.1680908203125,-8.693878044141456e-05,74.33802032470703,-1.9166457653045654,1.0781283378601074,0.7325728535652161,4307
1189A,黄巷,无锡,120.275,31.6219,20180531,44.612903225806456,3521.0,7492.0,2200293.1564806486,477876.4342162003,3,1.640899896621704,240.58139038085938,294.32611083984375,100994.3203125,0.002934759948402643,292.4626159667969,-5.4153191740624607e-05,74.93993377685547,-1.4292879104614258,0.8060327768325806,0.7799525856971741,3178
1190A,曹张,无锡,120.294,31.56,20180531,48.693548387096776,3530.0,7495.0,2203793.799193455,471148.37555448635,8,1.8397407531738281,240.94383239746094,294.54248046875,100956.375,0.0028550284914672375,300.39874267578125,-6.358137034112588e-05,74.81226348876953,-1.6081703901290894,0.8935514092445374,0.7456014752388,2998
1191A,漆塘,无锡,120.242,31.5031,20180531,42.903225806451616,3540.0,7487.0,2201090.7552102064,463407.80346688925,29,2.130557060241699,240.23915100097656,295.0379333496094,100878.265625,0.0027565041091293097,320.5618591308594,-8.788430568529293e-05,74.17412567138672,-1.8495142459869385,1.0576250553131104,0.7466900944709778,6140
1192A,东亭,无锡,120.354,31.5848,20180531,44.6551724137931,3527.0,7505.0,2208148.791529943,475361.09999803494,5,1.7273284196853638,241.4962158203125,294.3397521972656,101015.7734375,0.0029352770652621984,289.3570251464844,-4.971594535163604e-05,75.33870697021484,-1.5179252624511719,0.8243580460548401,0.7665980458259583,3108
1193A,旺庄,无锡,120.354,31.5475,20180531,40.854838709677416,3532.0,7505.0,2209286.1774212206,471051.4473488431,5,1.8713759183883667,241.62057495117188,294.4857177734375,101000.0625,0.002884102752432227,292.86065673828125,-5.4284464567899704e-05,75.20516967773438,-1.6464444398880005,0.889532744884491,0.7810137867927551,3491
1194A,荣巷,无锡,120.245,31.5631,20180531,48.51785714285714,3530.0,7487.0,2199524.8872635677,470408.6974865123,20,1.8305315971374512,240.2208709716797,294.62884521484375,100922.1171875,0.0028413599357008934,307.1024475097656,-7.195223588496447e-05,74.47000885009766,-1.5887750387191772,0.909197211265564,0.7497340440750122,4181
1195A,堰桥,无锡,120.288,31.6842,20180531,47.967741935483865,3511.0,7494.0,2199504.35561039,485369.10254528286,4,1.5654926300048828,240.58978271484375,294.1737976074219,101079.21875,0.003042571945115924,280.2772216796875,-3.9219699829118326e-05,75.31295776367188,-1.363717794418335,0.7687918543815613,0.7746572494506836,3462
1196A,市监测站,常州,119.996,31.7586,20180531,46.0,3499.0,7447.0,2172421.7982142456,487478.4431445548,4,1.491028070449829,237.37319946289062,294.31658935546875,101049.03125,0.0031296859961003065,266.0545959472656,-2.7013247745344415e-05,74.09314727783203,-1.2557203769683838,0.8039470911026001,0.7830842137336731,2891
1200A,武进监测站,常州,119.935,31.7039,20180531,44.58064516129032,3507.0,7438.0,2168876.565523892,479800.86266131705,5,1.500388503074646,237.04812622070312,294.397705078125,101001.2890625,0.003078170120716095,272.1975402832031,-3.912481042789295e-05,73.94953155517578,-1.2589935064315796,0.8161501288414001,0.7813205122947693,3291
1201A,安家,常州,119.905,31.9108,20180531,54.67741935483871,3474.0,7433.0,2160118.7120844657,503091.8007751509,5,1.4669972658157349,236.69349670410156,294.0232238769531,101032.5078125,0.003449712647125125,257.0074157714844,-2.7192445486434735e-05,74.33633422851562,-1.2260122299194336,0.8055899143218994,0.8318307399749756,4342
1203A,新区办事处,镇江,119.68,32.1883,20180531,50.75,3430.0,7397.0,2132762.945901931,530337.4483238196,19,1.5263842344284058,236.0697479248047,293.74517822265625,100951.4453125,0.003958170767873526,245.15957641601562,-2.374888390477281e-05,74.715087890625,-1.2664433717727661,0.8520386219024658,0.8210418224334717,4910
1204A,职教中心,镇江,119.491,32.215,20180531,39.548387096774185,3426.0,7367.0,2115982.528513791,529348.7991169957,14,1.4190559387207031,235.33030700683594,293.7110595703125,100912.359375,0.004209926817566156,242.37371826171875,-2.3871214580140077e-05,74.86579132080078,-1.1670726537704468,0.8072553873062134,0.83685702085495,5341
1205A,丹徒区监测站,镇江,119.43,32.1319,20180531,56.70967741935484,3439.0,7357.0,2113269.7844324512,518393.0431059132,31,1.3634562492370605,234.34999084472656,293.7682800292969,100749.546875,0.0041589741595089436,235.29417419433594,-2.231826692877803e-05,74.69453430175781,-1.1079118251800537,0.7946975827217102,0.8225189447402954,3586
1206A,公园路,泰州,119.9,32.4867,20180531,43.67741935483871,3382.0,7432.0,2142405.826581883,569738.254758057,6,1.4804956912994385,236.4539337158203,293.18841552734375,101054.6953125,0.004183930344879627,239.9275665283203,-1.5011567484179977e-05,75.38471984863281,-1.233883261680603,0.8181685209274292,0.8237321972846985,3008
1207A,莲花,泰州,119.9219,32.4611,20180531,42.2258064516129,3386.0,7435.0,2145019.3928266745,567246.0861215233,4,1.488756537437439,236.48463439941406,293.2042541503906,101050.6875,0.004145438317209482,240.69219970703125,-1.6029820471885614e-05,75.41097259521484,-1.241208791732788,0.8220686316490173,0.8515538573265076,3680
1209A,留学生创业园,泰州,119.888,32.4639,20180531,41.79032258064515,3386.0,7430.0,2142080.254472749,566831.3798744513,3,1.4865401983261108,236.48004150390625,293.23382568359375,101047.734375,0.004190518986433744,240.93270874023438,-1.6153928299900144e-05,75.3221664428711,-1.2392950057983398,0.8209443688392639,0.8313437700271606,3301
1210A,钵池山,淮安,119.036,33.5981,20180531,33.46666666666667,3204.0,7294.0,2037268.8462026652,680675.1666842016,13,1.348088026046753,231.5043487548828,292.7123718261719,100959.2109375,0.003341828938573599,246.86697387695312,-2.2648799131275155e-05,73.5611343383789,-1.0550661087036133,0.8391523957252502,0.851885199546814,2906
1211A,北京南路,淮安,119.007,33.575,20180531,32.70967741935484,3208.0,7289.0,2035531.9066712616,677378.996134566,11,1.3821995258331299,232.53244018554688,292.8302307128906,100952.515625,0.0033640158362686634,249.59864807128906,-2.4087119527393952e-05,73.60893249511719,-1.0970262289047241,0.8408382534980774,0.7789724469184875,2567
1212A,市监测站,淮安,118.989,33.6067,20180531,41.78333333333333,3203.0,7286.0,2033114.7288390738,680705.1361195798,14,1.3696322441101074,232.1343231201172,292.7997131347656,100946.8671875,0.0033932821825146675,249.281005859375,-2.4115452106343582e-05,73.46605682373047,-1.0812363624572754,0.8407262563705444,0.7800546288490295,4389
1213A,楚州区监测站,淮安,119.135,33.5039,20180531,35.41935483870968,3219.0,7310.0,2048245.0530789574,671745.6460173256,7,1.3433984518051147,232.57559204101562,292.745361328125,101004.484375,0.0031818998977541924,248.3760986328125,-2.394180955889169e-05,74.0013427734375,-1.0668456554412842,0.8164311051368713,0.7831263542175293,2869
1214A,淮阴区监测站,淮安,119.0122,33.626999999999995,20180531,37.20967741935485,3200.0,7290.0,2034451.027695706,683554.1345761358,15,1.3544399738311768,231.28013610839844,292.71533203125,100958.7421875,0.0033728128764778376,246.30853271484375,-2.2226196961128153e-05,73.43495178222656,-1.0567302703857422,0.847247838973999,0.7675266861915588,2647
1215A,盐城电厂,盐城,120.118,33.4022,20180531,30.64516129032258,3236.0,7467.0,2132971.176929006,680817.913944045,2,1.511122465133667,233.85992431640625,291.78961181640625,101113.7421875,0.003065321361646056,229.56051635742188,-1.3831285286869388e-05,74.90180969238281,-1.220323920249939,0.8912354707717896,0.7678311467170715,2497
1216A,市监测站,盐城,120.156,33.3942,20180531,29.816666666666666,3237.0,7473.0,2136370.7751475726,680713.2948569956,3,1.5255424976348877,234.12521362304688,291.7645568847656,101112.453125,0.00301602715626359,230.00741577148438,-1.384918414260028e-05,74.93929290771484,-1.2361215353012085,0.8940264582633972,0.7568984627723694,3691
1218A,开发区管委会,盐城,120.225,33.3947,20180531,27.016129032258068,3237.0,7484.0,2142086.218445823,682273.6437086078,-1,1.5540354251861572,234.34707641601562,291.70684814453125,101111.59375,0.002912474563345313,230.53382873535156,-1.3888644389226101e-05,75.0032730102539,-1.262726068496704,0.9058416485786438,0.7449268102645874,5194
1220A,宿迁学院,宿迁,118.293,33.9528,20180531,40.66666666666666,3148.0,7175.0,1965474.3080540379,706985.5840348046,23,1.217514157295227,234.31585693359375,293.1206970214844,100813.1484375,0.0029405076056718826,236.1331787109375,-3.076953726122156e-05,70.5761489868164,-0.9888999462127686,0.7102236151695251,0.7646865844726562,2565
1221A,宿迁中学,宿迁,118.2442,33.9592,20180531,34.53333333333333,3147.0,7167.0,1961253.169496429,706759.3964726392,23,1.222455620765686,234.3202362060547,293.1453552246094,100802.3203125,0.0029066945426166058,237.71139526367188,-3.413281592656858e-05,70.43717956542969,-0.9929680824279785,0.7130302786827087,0.7907689213752747,3827
1222A,宿豫区环保局,宿迁,118.3214,33.9506,20180531,35.25806451612903,3148.0,7179.0,1967887.8395890559,707296.607668954,20,1.2156929969787598,234.31373596191406,293.1091003417969,100818.09375,0.0029540425166487694,235.39968872070312,-2.926969864347484e-05,70.63969421386719,-0.987394392490387,0.7091979384422302,0.7757757902145386,3447
1223A,滨江,杭州,120.211,30.21,20180531,33.935483870967744,3746.0,7482.0,2237566.4156976873,313608.5251646338,10,0.8467869758605957,272.5306091308594,295.2893981933594,100884.6171875,0.002991571556776762,214.1013946533203,-2.5995952455559745e-05,75.3790512084961,-0.8459629416465759,-0.03734777867794037,0.6909831166267395,2784
1224A,西溪,杭州,120.063,30.2747,20180531,33.564516129032256,3736.0,7458.0,2222775.9113259236,317695.502767676,6,0.5835533738136292,274.06243896484375,294.89093017578125,100510.0390625,0.0033275610767304897,202.67800903320312,-1.754231925588101e-05,76.90409851074219,-0.5820891857147217,-0.041312724351882935,0.7168093323707581,4229
1225A,千岛湖,杭州,119.026,29.635,20180531,17.483870967741936,3838.0,7292.0,2151091.514427807,220953.570767773,107,0.561268150806427,293.6641540527344,295.37158203125,98417.8984375,0.004918126855045557,161.7877960205078,-2.8546754037961364e-05,80.1223373413086,-0.5140864849090576,-0.22524884343147278,0.5954020619392395,3994
1226A,下沙,杭州,120.348,30.3058,20180531,39.25806451612903,3731.0,7504.0,2246547.922844542,327756.29557272664,10,1.1448564529418945,264.802978515625,295.10955810546875,100880.9609375,0.0029011990409344435,232.2974395751953,-3.514518175506964e-05,75.21626281738281,-1.1401455402374268,0.10375171899795532,0.7071143388748169,2310
1227A,卧龙桥,杭州,120.127,30.2456,20180531,34.766666666666666,3741.0,7468.0,2229203.477546231,315795.76993649756,30,0.6894423961639404,274.1837158203125,294.9748229980469,100565.59375,0.0031554955057799816,208.65928649902344,-2.187089921790175e-05,76.23287963867188,-0.6876076459884644,-0.05026470497250557,0.6977915167808533,3156
1228A,浙江农大,杭州,120.19,30.2692,20180531,38.903225806451616,3737.0,7478.0,2233957.9523828086,319942.6136032786,16,0.8166458010673523,270.16058349609375,295.0670166015625,100730.4609375,0.003104256698861718,215.47747802734375,-2.483088246663101e-05,75.57062530517578,-0.816642701625824,-0.002251215046271682,0.6943480372428894,2897
1229A,朝晖五区,杭州,120.157,30.2897,20180531,44.951612903225815,3734.0,7473.0,2230477.9983729837,321552.28702759754,14,0.7610368132591248,269.71484375,294.9685363769531,100660.53125,0.003191075287759304,212.4051971435547,-2.2343514501699246e-05,75.90962982177734,-0.7610272169113159,0.003822526428848505,0.719373881816864,2243
1230A,和睦小学,杭州,120.12,30.3119,20180531,37.38709677419355,3730.0,7467.0,2226601.379672677,323268.5589064147,9,0.6917996406555176,268.30633544921875,294.8635559082031,100615.3828125,0.0033288183622062206,208.58154296875,-1.9552893718355335e-05,76.31947326660156,-0.6914964914321899,0.020477909594774246,0.7444397807121277,3558
1231A,临平镇,杭州,120.301,30.4183,20180531,35.064516129032256,3713.0,7496.0,2239065.4965220126,339629.7205091957,9,1.0763635635375977,262.5985107421875,294.8142395019531,100758.4453125,0.0030476318206638098,229.1904754638672,-2.3406213585985824e-05,75.25813293457031,-1.0673891305923462,0.13870438933372498,0.7053657174110413,2320
1232A,城厢镇,杭州,120.27,30.1819,20180531,39.19354838709677,3751.0,7491.0,2243537.147009383,311721.35785506375,13,0.9192653894424438,271.01934814453125,295.3662109375,100842.5,0.0029765211511403322,216.10589599609375,-2.8255515644559637e-05,75.12495422363281,-0.9191206693649292,-0.016310928389430046,0.6918437480926514,2300
1233A,云栖,杭州,120.088,30.1808,20180531,27.274193548387093,3751.0,7462.0,2227765.73183013,307453.8199660371,59,0.6014664769172668,280.839111328125,294.95452880859375,100234.9296875,0.0031368713825941086,197.92498779296875,-1.846464328991715e-05,76.71881866455078,-0.5907416343688965,-0.11307631433010101,0.69240403175354,5779
1235A,万里学院,宁波,121.56,29.8208,20180531,31.532258064516128,3809.0,7698.0,2366794.5046135117,300549.44622950815,4,1.1770102977752686,210.2972412109375,294.1711730957031,100878.7890625,0.004155817441642284,277.6591796875,-2.6876576157519594e-05,84.81770324707031,-0.5937693119049072,1.0162633657455444,0.6210549473762512,3927
1237A,三江中学,宁波,121.554,29.8906,20180531,33.225806451612904,3798.0,7697.0,2364059.258136594,308395.85565963626,7,1.2708687782287598,213.264892578125,294.28216552734375,101140.7109375,0.004287563730031252,280.4866943359375,-2.845206472557038e-05,84.34239196777344,-0.6970668435096741,1.06264066696167,0.597557783126831,2223
1239A,钱湖水厂,宁波,121.633,29.7736,20180531,30.70967741935484,3816.0,7709.0,2374640.7055564644,296908.9195396631,14,1.240414023399353,207.2831268310547,293.90899658203125,100098.7578125,0.0038710064254701138,289.1410217285156,-3.0473000151687302e-05,84.76728057861328,-0.5685752630233765,1.1024287939071655,0.5861808061599731,4498
1240A,太古小学,宁波,121.586,29.8633,20180531,29.29032258064516,3802.0,7702.0,2367705.2314566667,306040.8677309729,6,1.2870664596557617,211.84849548339844,294.1925354003906,100925.8046875,0.004142151679843664,285.0264587402344,-3.055690467590466e-05,84.41914367675781,-0.6791348457336426,1.0933051109313965,0.6126731634140015,2535
1241A,市环境监测中心,宁波,121.524,29.8506,20180531,25.612903225806452,3804.0,7692.0,2362720.87829259,303094.51434422244,5,1.1596295833587646,212.2556610107422,294.29254150390625,101184.34375,0.0043276031501591206,272.1978759765625,-2.453403067192994e-05,84.7309341430664,-0.6188758015632629,0.9806801080703735,0.6071081757545471,2414
1242A,瓯海,温州,120.634,28.0089,20180531,36.645161290322584,4099.0,7549.0,2341518.944681287,71385.39209791353,22,0.7650652527809143,253.28553771972656,294.94671630859375,99737.8125,0.0035666292533278465,177.05714416503906,-2.06837103178259e-05,88.20380401611328,-0.732732892036438,0.22006209194660187,0.6165881156921387,3462
1243A,南浦,温州,120.677,27.9939,20180531,38.19354838709677,4101.0,7556.0,2345814.186876216,70701.43436280674,9,0.8652001023292542,253.71151733398438,295.0233154296875,99909.9609375,0.003209182294085622,195.74147033691406,-2.5057657694560476e-05,87.32799530029297,-0.8304632306098938,0.2426973432302475,0.6034271121025085,2991
1244A,龙湾,温州,120.76,27.9747,20180531,27.903225806451612,4104.0,7570.0,2353809.713012583,70498.58135475723,16,1.0823053121566772,253.3668212890625,295.0685729980469,100062.390625,0.00268679391592741,232.36534118652344,-3.3185704523930326e-05,85.94171142578125,-1.0370066165924072,0.3098418712615967,0.5903320908546448,662
1245A,市站,温州,120.671,28.0167,20180531,41.032258064516135,4097.0,7555.0,2344583.803014831,73156.7166222372,10,0.822158694267273,253.17713928222656,294.92144775390625,99762.8984375,0.0034406811464577913,188.62857055664062,-2.2781996449339204e-05,87.68882751464844,-0.7869647145271301,0.23797361552715302,0.5968913435935974,2101
1246A,袍江站,绍兴,120.598,30.0911,20180531,38.951612903225815,3766.0,7544.0,2274781.60601228,308825.02940165077,9,1.299898624420166,254.8077392578125,295.4005432128906,100882.0,0.0034798625856637955,224.2627716064453,-3.2307809306075796e-05,76.05171966552734,-1.2544565200805664,0.3406981825828552,0.6639492511749268,2904
1247A,城东开发委,绍兴,120.605,29.9919,20180531,33.935483870967744,3781.0,7545.0,2278427.772793617,297592.9635975533,9,1.1085412502288818,252.672607421875,295.21893310546875,100438.328125,0.0039036476518958807,209.12783813476562,-2.088687506329734e-05,76.3121337890625,-1.058221697807312,0.33019769191741943,0.6562565565109253,3160
1250A,城西水厂,湖州,120.07,30.8244,20180531,31.806451612903228,3648.0,7459.0,2206861.8158151745,381196.26170725236,22,1.1174371242523193,238.37789916992188,294.4641418457031,100526.59375,0.0032999904360622168,244.05130004882812,-4.227919998811558e-05,75.37078094482422,-0.9515077471733093,0.5859171152114868,0.7478170990943909,5229
1252A,清河小学,嘉兴,120.744,30.7946,20180531,37.32258064516129,3653.0,7567.0,2265767.2640952403,393102.266280444,7,1.4682830572128296,247.62452697753906,294.1724853515625,100991.7578125,0.0027088152710348368,265.9715881347656,-2.789533755276352e-05,79.03105163574219,-1.3577152490615845,0.55898517370224,0.6919925212860107,3839
1253A,嘉兴学院,嘉兴,120.726,30.7478,20180531,40.20967741935485,3660.0,7564.0,2265663.101636063,387299.9193127023,7,1.49356210231781,248.35533142089844,294.23052978515625,100996.6875,0.00272006425075233,263.0845947265625,-2.2316042304737493e-05,78.87042999267578,-1.388230562210083,0.5509481430053711,0.7220063805580139,3816
1255A,黄岩环保大楼,台州,121.273,28.6459,20180531,29.822580645161292,3997.0,7652.0,2378627.8908326807,159367.0242190854,129,0.6941624879837036,213.17137145996094,294.7120056152344,100281.453125,0.004077722318470478,289.9134216308594,-1.5593132047797553e-05,85.13111114501953,-0.37979766726493835,0.5810467004776001,0.5794574618339539,5204
1256A,台州环保大楼,台州,121.419,28.6542,20180531,30.693548387096772,3995.0,7675.0,2391266.1007089866,163857.28304633783,11,0.7921057939529419,210.13253784179688,294.77374267578125,100488.546875,0.003373932559043169,319.2496032714844,-2.6932306354865432e-05,84.83037567138672,-0.3976280391216278,0.6850719451904297,0.5796746015548706,5120
1257A,路桥田洋王,台州,121.377,28.5773,20180531,29.161290322580644,4008.0,7668.0,2389968.264172279,154068.1303886213,18,0.7622527480125427,205.82369995117188,294.77435302734375,100522.2890625,0.0034678825177252293,308.8564147949219,-1.8666352843865752e-05,84.79747772216797,-0.3320308029651642,0.6861376166343689,0.5711979269981384,2318
1262A,十五中,金华,119.647,29.077,20180531,30.2,3928.0,7392.0,2221958.577362243,170624.37600593886,45,0.47478097677230835,261.3830871582031,296.22784423828125,99416.8046875,0.0037729183677583933,151.6367645263672,-1.5010098650236614e-05,75.39651489257812,-0.46941879391670227,0.0711546391248703,0.6117777824401855,3589
1263A,监测站,金华,119.686,29.1029,20180531,28.306451612903228,3924.0,7398.0,2224637.5050951755,174478.82997693727,44,0.4907187819480896,267.19207763671875,296.2377624511719,99274.1328125,0.00353817455470562,153.89529418945312,-1.5049849935167003e-05,75.0020980834961,-0.4901285469532013,0.024061238393187523,0.6056870818138123,3942
1264A,环保大楼,衢州,118.871,28.9404,20180531,22.774193548387093,3950.0,7267.0,2157297.521946271,137645.06046697436,70,0.670163631439209,284.9164733886719,296.2071228027344,99616.4296875,0.0044791423715651035,142.27301025390625,-1.2987401532882359e-05,78.60942077636719,-0.6475898623466492,-0.17247231304645538,0.5775119066238403,3207
1265A,实验学校,衢州,118.871,28.9664,20180531,27.216666666666665,3945.0,7267.0,2156556.9793040673,140633.11076203405,67,0.6570068001747131,287.614990234375,296.2139587402344,99780.1875,0.0045517124235630035,145.3075408935547,-1.3250527445052285e-05,78.579833984375,-0.6262118220329285,-0.1987881064414978,0.5694716572761536,4187
1266A,衢州学院,衢州,118.855,28.9745,20180531,25.983870967741932,3944.0,7265.0,2154909.4556633476,141213.05265773484,69,0.6703124046325684,289.00677490234375,296.1973571777344,99712.140625,0.004536907654255629,146.6804962158203,-1.3324091924005188e-05,78.47946166992188,-0.6337792873382568,-0.21827171742916107,0.5928071141242981,3438
1267A,监测站大楼,丽水,119.914,28.4514,20180531,21.33870967741936,4028.0,7434.0,2264081.2542433757,105041.45250695299,61,0.7144591212272644,233.15243530273438,295.7718505859375,98235.8125,0.004921365063637495,161.04800415039062,-9.960666830011178e-06,78.44282531738281,-0.5717225670814514,0.42846834659576416,0.599987268447876,2566
1268A,莲都小学,丽水,119.93,28.4586,20180531,19.145161290322577,4027.0,7437.0,2265290.3686149265,106233.88491240589,56,0.7287917733192444,233.00559997558594,295.7204284667969,98131.8046875,0.004801591858267784,164.63494873046875,-1.0015324733103625e-05,78.57107543945312,-0.5820698738098145,0.4385567903518677,0.5905804634094238,3313
1269A,余庄前,丽水,119.879,28.4231,20180531,20.196428571428573,4032.0,7429.0,2261806.6439708336,100997.9407244854,91,0.6973957419395447,233.393798828125,295.8428955078125,98363.234375,0.005156212951987982,153.67758178710938,-9.865612810244784e-06,78.42365264892578,-0.5598251223564148,0.41588059067726135,0.5748759508132935,6484
1270A,明珠广场,合肥,117.196,31.7848,20180531,36.586206896551715,3495.0,6999.0,1932792.3246045213,432026.43643488444,34,0.8940763473510742,229.69723510742188,295.0527038574219,100688.125,0.002938199555501342,227.10928344726562,-1.665300987951923e-05,72.8973159790039,-0.6818410754203796,0.5783297419548035,0.7862151265144348,4126
1271A,三里街,合肥,117.307,31.8766,20180531,35.61290322580645,3480.0,7017.0,1939820.6420691942,444912.74861277477,20,0.9123428463935852,236.65756225585938,294.99591064453125,100804.9765625,0.0028773806989192963,237.28802490234375,-2.4240500351879746e-05,73.32120513916016,-0.7621570229530334,0.5014839768409729,0.7685417532920837,2779
1272A,琥珀山庄,合肥,117.259,31.8706,20180531,36.19354838709677,3481.0,7009.0,1935879.4757875002,443266.77702391765,22,0.8918746709823608,234.63381958007812,294.92449951171875,100724.0625,0.0028738866094499826,230.21173095703125,-1.905652607092634e-05,73.2108154296875,-0.7272822260856628,0.5162373781204224,0.7700077295303345,4302
1273A,董铺水库,合肥,117.16,31.9051,20180531,40.0,3475.0,6994.0,1926493.3234138393,445343.0046331868,29,0.8581497669219971,233.02305603027344,294.677490234375,100530.5,0.0028431362006813288,219.1405487060547,-1.7426098565920256e-05,73.56266784667969,-0.6855425238609314,0.5161902904510498,0.7707255482673645,4428
1274A,长江中路,合肥,117.25,31.8572,20180531,34.854838709677416,3483.0,7008.0,1935470.0174502383,441527.6053778212,29,0.8958848118782043,234.10813903808594,294.95086669921875,100724.6328125,0.0028854545671492815,229.78622436523438,-1.8297010683454573e-05,73.13025665283203,-0.7257640361785889,0.525239109992981,0.7848590612411499,3875
1275A,庐阳区,合肥,117.266,31.9438,20180531,41.032258064516135,3469.0,7011.0,1934510.4025172042,451937.70371746575,33,0.8889687061309814,236.94488525390625,294.72528076171875,100613.9375,0.002815157873556018,227.88560485839844,-1.9692502974066883e-05,73.64912414550781,-0.7450716495513916,0.48490580916404724,0.7755385041236877,4046
1276A,瑶海区,合肥,117.336,31.8585,20180531,41.032258064516135,3483.0,7022.0,1942786.8466519858,443376.3136578094,18,0.9477737545967102,237.5978240966797,295.1117858886719,100830.46875,0.0029103534761816263,243.93630981445312,-2.8756969186360948e-05,73.26948547363281,-0.8001974821090698,0.5078967809677124,0.7858929634094238,3091
1277A,包河区,合肥,117.302,31.7956,20180531,41.16666666666666,3493.0,7016.0,1941573.347275026,435374.77442086674,21,0.9798972010612488,235.32887268066406,295.267333984375,100834.5703125,0.002977790543809533,242.888916015625,-2.6543641070020385e-05,72.86982727050781,-0.8058817982673645,0.5574523210525513,0.8006963133811951,4155
1278A,滨湖新区,合肥,117.278,31.7386,20180531,40.16129032258065,3502.0,7012.0,1941052.0114874728,428259.45214804943,18,1.0035374164581299,233.2095947265625,295.5056457519531,100762.765625,0.003032097825780511,240.84445190429688,-2.2929118131287396e-05,72.55978393554688,-0.803648054599762,0.6010301113128662,0.7851977944374084,4313
1279A,高新区,合肥,117.124,31.8516,20180531,37.467741935483865,3484.0,6988.0,1924845.5376938405,438399.70668679825,48,0.8499380350112915,229.68934631347656,294.7489013671875,100532.0625,0.00288267619907856,217.7360382080078,-1.6499361663591117e-05,73.41648864746094,-0.6481046080589294,0.5498682856559753,0.7667680382728577,3237
1280A,鼓山,福州,119.389,26.0542,20180531,26.403225806451612,4411.0,7350.0,2286633.3790439707,-180241.46351669182,350,0.2863800525665283,238.44215393066406,296.4143371582031,99329.125,0.0030244209337979555,233.14700317382812,-2.6663778044166975e-05,85.70686340332031,-0.24402344226837158,0.14988693594932556,0.4637199640274048,6956
1282A,师大,福州,119.303,26.0392,20180531,26.0,4414.0,7336.0,2279165.491863024,-183941.48390557116,18,0.33963820338249207,229.59967041015625,296.3707580566406,99798.6953125,0.0032775357831269503,209.3007049560547,-2.0529165340121835e-05,86.28318786621094,-0.2586406171321869,0.22013434767723083,0.48205745220184326,3548
1283A,五四北路,福州,119.299,26.1092,20180531,30.193548387096772,4403.0,7336.0,2276792.4120324273,-176089.9945079648,15,0.34161609411239624,247.1387939453125,296.3035583496094,99424.5703125,0.003502696519717574,193.01666259765625,-1.80266779352678e-05,86.75646209716797,-0.314777135848999,0.132728710770607,0.5191336274147034,2987
1284A,杨桥西路,福州,119.268,26.0797,20180531,29.177419354838708,4407.0,7331.0,2274791.331131888,-180156.3501682775,26,0.366574227809906,237.72109985351562,296.3312072753906,99497.5234375,0.0035087689757347107,189.408935546875,-1.6621879694866948e-05,86.8144302368164,-0.30991753935813904,0.1957748681306839,0.4628268778324127,3344
1285A,紫阳,福州,119.315,26.0753,20180531,32.88709677419355,4408.0,7338.0,2279232.8802138544,-179566.5618907104,12,0.326035737991333,240.38621520996094,296.37921142578125,99720.8125,0.0033602435141801834,204.2875213623047,-2.0102079361095093e-05,86.44712829589844,-0.2834426760673523,0.1611197143793106,0.5109719634056091,2826
1286A,溪东,厦门,118.1569444,24.81805556,20180531,30.689655172413797,4609.0,7153.0,2207017.7406803975,-348510.3697484472,197,0.43574032187461853,202.76535034179688,296.82171630859375,98099.9140625,0.0035834622103720903,188.4298095703125,-1.5217745385598391e-05,84.37311553955078,-0.1686084270477295,0.40179699659347534,0.42894992232322693,5111
1290A,省外办,南昌,115.893,28.6844,20180531,17.322580645161292,3991.0,6791.0,1898924.7872917885,46657.377652659125,28,0.4594683349132538,329.1578063964844,297.5498046875,100533.0,0.002690285677090287,253.87017822265625,-3.178882252541371e-05,77.00288391113281,-0.23558826744556427,-0.39447346329689026,0.6183930039405823,1289
1291A,省林业公司,南昌,115.8886,28.6839,20180531,7.966666666666668,3991.0,6790.0,1898543.40109039,46514.543787555056,29,0.4575357437133789,329.42022705078125,297.51812744140625,100479.8828125,0.002675407798960805,253.0592041015625,-3.14180288114585e-05,77.02549743652344,-0.23279578983783722,-0.3938845992088318,0.6327452659606934,1274
1292A,林科所,南昌,115.813,28.7442,20180531,13.5,3981.0,6778.0,1890275.7919736747,52030.18964531628,41,0.3726658225059509,345.144775390625,296.9056701660156,99558.7890625,0.0025653191842138767,240.8668975830078,-2.6740704925032333e-05,77.61077117919922,-0.09557373076677322,-0.36020198464393616,0.6208775043487549,4774
1293A,京东镇政府,南昌,115.973,28.6969,20180531,21.29032258064516,3989.0,6804.0,1905772.0900439913,49651.3553040377,17,0.4699707329273224,325.4281005859375,297.7950439453125,100867.1953125,0.002830854617059231,264.4459228515625,-3.665763870230876e-05,76.72850036621094,-0.26670902967453003,-0.3869609534740448,0.6106765270233154,1718
1294A,建工学校,南昌,115.852,28.6869,20180531,17.806451612903224,3990.0,6784.0,1895192.2573039967,46154.86127522885,19,0.4390338361263275,332.1475524902344,297.2963562011719,100121.6875,0.0025916825979948044,248.00790405273438,-2.9181332138250582e-05,77.18755340576172,-0.20514532923698425,-0.38815730810165405,0.6169455051422119,2194
1295A,象湖,南昌,115.892,28.6425,20180531,23.20967741935484,3997.0,6791.0,1899881.024234948,41794.031852114305,23,0.5042343735694885,323.63470458984375,297.6917419433594,100668.265625,0.0026601417921483517,254.5587158203125,-3.178442784701474e-05,76.87938690185547,-0.2990064322948456,-0.406014084815979,0.6139774918556213,2295
1296A,武术学校,南昌,115.742,28.7994,20180531,6.629032258064517,3972.0,6767.0,1882555.1603543658,57052.94511279395,188,0.31763508915901184,174.53819274902344,296.5762023925781,99027.5546875,0.002485956298187375,231.02023315429688,-2.2750768039259128e-05,78.23798370361328,0.030261650681495667,-0.31619027256965637,0.6278862953186035,7272
1298A,省站,南昌,115.931,28.6844,20180531,17.870967741935484,3991.0,6797.0,1902326.1841922994,47392.41275093893,22,0.47061339020729065,327.2151184082031,297.71337890625,100784.90625,0.002768237143754959,258.7359924316406,-3.4013588447123766e-05,76.86723327636719,-0.2548607587814331,-0.3956298530101776,0.6120527982711792,2472
1299A,科干所,济南,116.988,36.6114,20180531,43.43333333333333,2722.0,6966.0,1785985.8832936925,994763.6836668961,134,1.3750381469726562,208.67880249023438,293.3841247558594,99718.265625,0.0011911825276911259,228.5601043701172,-1.665464515099302e-05,60.79460525512695,-0.6598613858222961,1.2063634395599365,0.6198199391365051,3835
1300A,农科所,济南,116.93,36.67,20180531,37.38333333333333,2713.0,6957.0,1779781.1956137684,1000637.8228765937,30,1.4166311025619507,209.38282775878906,293.72552490234375,100176.2109375,0.001127341529354453,235.87364196777344,-1.769561458786484e-05,58.81768798828125,-0.6950408220291138,1.2344074249267578,0.599626362323761,4006
1301A,开发区,济南,117.114,36.6739,20180531,39.464285714285715,2712.0,6986.0,1794356.74439847,1004445.2419722626,85,1.4106104373931885,206.7696533203125,293.2620544433594,99516.828125,0.001225992920808494,227.62173461914062,-1.572236214997247e-05,60.336029052734375,-0.6353284120559692,1.2594362497329712,0.5846685171127319,2400
1302A,济南化工厂,济南,116.989,36.6872,20180531,43.45,2710.0,6966.0,1784026.6637681874,1003740.994475029,29,1.4212089776992798,208.31124877929688,293.6856994628906,100139.8046875,0.0011155097745358944,235.14898681640625,-1.7856635167845525e-05,58.805973052978516,-0.6740059852600098,1.2512197494506836,0.5893649458885193,2690
1303A,省种子仓库,济南,117.0684,36.6868,20180531,44.91379310344828,2710.0,6979.0,1790370.9167291156,1005137.8969206831,39,1.4195070266723633,207.267578125,293.4743957519531,99853.6953125,0.0011689827078953385,230.95733642578125,-1.6604240954620764e-05,59.571292877197266,-0.6503245830535889,1.2617758512496948,0.6306536197662354,2618
1304A,机床二厂,济南,116.943,36.6489,20180531,52.806451612903224,2716.0,6959.0,1781385.1031714054,998379.1373206386,38,1.4051531553268433,209.30545043945312,293.63720703125,100061.9765625,0.0011480337707325816,233.7130584716797,-1.7382997612003237e-05,59.40098571777344,-0.687755286693573,1.2253358364105225,0.6205164790153503,2697
1305A,市监测站,济南,117.049,36.6622,20180531,41.862068965517246,2714.0,6976.0,1789487.1215658952,1001877.217053345,70,1.401131272315979,207.47703552246094,293.4109191894531,99742.1171875,0.0011742511996999383,229.819091796875,-1.6585854609729722e-05,60.07051086425781,-0.6464548110961914,1.2430869340896606,0.6107964515686035,3032
1306A,长清党校,济南,116.734,36.5336,20180531,45.225806451612904,2735.0,6925.0,1767762.8439382664,980973.8370162379,54,1.424731969833374,215.86875915527344,293.7677001953125,100180.875,0.0013064260128885508,232.82933044433594,-1.6797512216726318e-05,59.84405517578125,-0.8347726464271545,1.154563069343567,0.6376917958259583,4139
1308A,李沧区子站,青岛,120.3905,36.1851,20180531,34.875,2790.0,7510.0,2069799.1065319313,1011370.8825317223,28,1.9386030435562134,192.30487060546875,288.9369812011719,100544.3515625,0.001351995742879808,169.4456024169922,-1.0295652828062885e-05,72.36227416992188,-0.41313058137893677,1.8940709829330444,0.553284764289856,3041
1314A,黄岛区子站,青岛,120.1964,36.3083,20180531,32.17741935483871,2771.0,7479.0,2050541.989239961,1021729.4567898654,5,1.4242020845413208,195.5067596435547,289.9232177734375,101020.5703125,0.0012152589624747634,175.9679412841797,-1.4474342606263235e-05,70.14460754394531,-0.38075247406959534,1.3723626136779785,0.5548133850097656,3977
1315A,城阳区子站,青岛,120.4001,36.2403,20180531,26.951612903225808,2782.0,7512.0,2068855.455110736,1018035.3542174291,23,1.7723278999328613,193.52847290039062,289.16363525390625,100571.5703125,0.001232840702868998,171.13278198242188,-1.1391357475076802e-05,72.69279479980469,-0.41458600759506226,1.7231553792953491,0.5308805108070374,2827
1316A,烟厂,郑州,113.681,34.7545,20180531,46.74193548387096,3019.0,6437.0,1563346.6509027067,718598.0309264403,101,1.0693399906158447,198.97218322753906,295.0031433105469,99698.6484375,0.000974646769464016,256.6925354003906,-1.7045618733391166e-05,60.440704345703125,-0.3476422429084778,1.0112531185150146,0.7597692012786865,3098
1317A,郑纺机,郑州,113.641,34.7745,20180531,47.854838709677416,3016.0,6431.0,1559584.4686567246,720331.927855063,103,1.0527689456939697,200.7682342529297,295.00439453125,99703.75,0.00097871373873204,253.26577758789062,-1.7535399820189923e-05,60.09822082519531,-0.3732895255088806,0.9843665361404419,0.717723548412323,2376
1318A,银行学校,郑州,113.675,34.8019,20180531,53.0,3012.0,6436.0,1561770.203375694,724118.4702023983,92,1.0638532638549805,202.60276794433594,295.1531677246094,99978.0,0.000996188959106803,254.6545867919922,-1.810274443414528e-05,59.754520416259766,-0.4088696837425232,0.9821452498435974,0.7494682669639587,3207
1319A,供水公司,郑州,113.564,34.802,20180531,43.17241379310346,3012.0,6418.0,1552596.174576395,722371.2195833377,112,1.017172932624817,205.0238494873047,294.9534606933594,99591.1015625,0.0009549686219543219,246.71136474609375,-1.8191622075391933e-05,59.567298889160156,-0.4302477538585663,0.921698272228241,0.7597522139549255,3422
1320A,经开区管委,郑州,113.727,34.7187,20180531,54.120689655172406,3025.0,6444.0,1567967.7062967168,715090.1755472538,100,1.0895535945892334,196.09239196777344,294.952880859375,99582.03125,0.0009529100498184562,259.5988464355469,-1.6719170162105e-05,60.88371276855469,-0.30200138688087463,1.0468629598617554,0.7805981636047363,2643
1321A,四十七中,郑州,113.734,34.719,20180531,45.80357142857143,3025.0,6445.0,1568539.8240689777,715237.432513614,99,1.0934139490127563,196.2845458984375,294.95745849609375,99595.8125,0.0009512246469967067,260.0697937011719,-1.6710993804736063e-05,60.88909149169922,-0.3065929710865021,1.0495498180389404,0.7184471487998962,2085
1323A,河医大,郑州,113.6356,34.7538,20180531,47.24193548387096,3019.0,6430.0,1559608.9275199582,717793.6263435954,107,1.0527423620224,199.19155883789062,294.91448974609375,99541.9296875,0.0009707448189146817,253.4100799560547,-1.7099000615417026e-05,60.38738250732422,-0.34605568647384644,0.9942394495010376,0.7136536836624146,2585
1324A,岗李水库,郑州,113.6113,34.9162,20180531,44.81666666666667,2993.0,6426.0,1553909.9835182982,736654.428241981,93,0.9948848485946655,216.44741821289062,295.2675476074219,99934.1171875,0.0010230517946183681,246.73294067382812,-2.0927793229930103e-05,57.73311996459961,-0.5910308361053467,0.8002989292144775,0.6947789788246155,4948
1325A,东湖梨园,武汉,114.3672,30.5719,20180531,33.55,3689.0,6547.0,1718247.761404337,237929.37917637927,27,0.9791398644447327,286.2913513183594,296.1230163574219,100659.8515625,0.0043387277983129025,233.3740997314453,-3.991442281403579e-05,75.10547637939453,-0.9398401975631714,-0.2746184170246124,0.731802761554718,1966
1326A,汉阳月湖,武汉,114.2511,30.5514,20180531,28.983870967741932,3692.0,6528.0,1708555.2332756524,233510.49010548496,31,0.9624752402305603,284.8385009765625,296.1104431152344,100637.78125,0.004127970430999994,244.66627502441406,-4.112564056413248e-05,74.56018829345703,-0.9303913712501526,-0.2464355081319809,0.7346750497817993,2661
1327A,汉口花桥,武汉,114.2836,30.6197,20180531,33.83870967741935,3681.0,6533.0,1709816.336427084,242054.53221182252,29,0.916704535484314,285.986572265625,295.9972839355469,100654.734375,0.004531813319772482,235.67672729492188,-3.6442990676732734e-05,74.89331817626953,-0.8812658786773682,-0.2524235248565674,0.7384904026985168,1793
1328A,武昌紫阳,武汉,114.3006,30.5494,20180531,28.5,3692.0,6536.0,1712938.3203224107,234138.70984583374,38,0.984851598739624,285.4363708496094,296.149169921875,100657.4765625,0.004156910348683596,240.65858459472656,-4.105800690012984e-05,74.77271270751953,-0.9493388533592224,-0.2620847225189209,0.7322908043861389,2465
1329A,青山钢花,武汉,114.4272,30.6103,20180531,43.20967741935484,3682.0,6556.0,1722603.1148952362,243464.66642220615,31,0.9265727996826172,287.19342041015625,296.02362060546875,100662.703125,0.004638180136680603,224.7149658203125,-3.7847614294150844e-05,75.40899658203125,-0.8851815462112427,-0.27384451031684875,0.7303111553192139,3142
1330A,沌口新区,武汉,114.1525,30.4753,20180531,31.566666666666666,3704.0,6512.0,1701670.8348510296,222910.61045734969,29,0.9214460253715515,282.6466064453125,296.0823669433594,100577.125,0.003820595098659396,247.97854614257812,-4.017468017991632e-05,74.44664764404297,-0.8991014361381531,-0.20169135928153992,0.7291808128356934,2515
1331A,汉口江滩,武汉,114.3008,30.5947,20180531,29.177419354838708,3685.0,6536.0,1711902.909485892,239433.47564766122,26,0.9454528093338013,285.92303466796875,296.0730285644531,100666.8984375,0.00439484603703022,236.52926635742188,-3.8212525396374986e-05,74.89313507080078,-0.9091908931732178,-0.2593315839767456,0.7284423112869263,1699
1333A,吴家山,武汉,114.2131,30.6414,20180531,32.983870967741936,3677.0,6522.0,1703143.1188627884,243365.60389965703,21,0.8791122436523438,285.46722412109375,295.87811279296875,100599.8515625,0.004662256687879562,235.9847412109375,-3.30709335685242e-05,74.79532623291016,-0.8472863435745239,-0.23440170288085938,0.7590425610542297,2868
1334A,沉湖七壕,武汉,113.8531,30.2997,20180531,25.8,3732.0,6464.0,1679384.9849878596,197249.36312211593,21,0.6819296479225159,276.05718994140625,296.043701171875,100714.796875,0.003594767302274704,249.0995330810547,-2.8414844564395025e-05,74.83680725097656,-0.6781260371208191,-0.07192451506853104,0.7355493307113647,2452
1335A,经开区环保局,长沙,113.0833,28.2325,20180531,34.0,4063.0,6341.0,1656447.9763578747,-56542.64937391733,58,0.16965319216251373,261.67950439453125,297.2811584472656,100335.78125,0.0033269543200731277,272.5315246582031,-2.1620777260977775e-05,79.01536560058594,-0.16786640882492065,0.02455758862197399,0.6306468844413757,2823
1336A,高开区环保局,长沙,112.8872,28.2189,20180531,32.59677419354839,4065.0,6310.0,1638975.7085505568,-61410.051136520575,59,0.10961639881134033,297.55499267578125,297.0176696777344,100077.140625,0.004007984884083271,284.7143859863281,-2.451285399729386e-05,79.63336944580078,-0.09718535840511322,-0.050702668726444244,0.6532771587371826,3156
1337A,马坡岭,长沙,113.0792,28.2053,20180531,33.80645161290323,4067.0,6341.0,1656664.2395844054,-59769.08318188609,44,0.1648443341255188,265.5588073730469,297.2826232910156,100323.5234375,0.003329930594190955,272.558837890625,-2.172926724597346e-05,79.003173828125,-0.1643487960100174,0.012772108428180218,0.6309307813644409,3708
1338A,湖南师范大学,长沙,112.9394,28.19,20180531,35.38333333333333,4070.0,6318.0,1644325.0226819566,-63893.443575734054,102,0.12227229028940201,296.3793640136719,297.0821838378906,100095.3203125,0.0038557962980121374,282.090576171875,-2.386026972089894e-05,79.48158264160156,-0.109543576836586,-0.05432052165269852,0.643689751625061,5186
1339A,雨花区环保局,长沙,112.9956,28.1442,20180531,31.725806451612907,4077.0,6327.0,1650403.3390680538,-68267.65040818707,83,0.13303202390670776,286.6943664550781,297.15216064453125,100092.9375,0.003608084749430418,279.36767578125,-2.333086922590155e-05,79.27822875976562,-0.12742693722248077,-0.038208600133657455,0.6379479765892029,3660
1340A,伍家岭,长沙,112.9792,28.2597,20180531,30.5,4059.0,6325.0,1646434.86022051,-55134.31895207711,30,0.13996277749538422,268.9485778808594,297.1630859375,100268.46875,0.003664528951048851,281.060546875,-2.33040645980509e-05,79.39613342285156,-0.1399390995502472,0.0025746983010321856,0.6497832536697388,3188
1341A,火车新站,长沙,113.0014,28.1944,20180531,34.44827586206897,4069.0,6328.0,1649849.6950502428,-62343.35904366493,48,0.1352378875017166,281.0673522949219,297.1697082519531,100211.84375,0.0036260399501770735,279.1173400878906,-2.3130020053940825e-05,79.29590606689453,-0.1327241063117981,-0.02595372125506401,0.6427589058876038,3493
1342A,天心区环保局,长沙,112.9844,28.1178,20180531,28.41379310344828,4081.0,6325.0,1649954.816841983,-71519.67839529835,90,0.13098518550395966,292.6718444824219,297.1372375488281,100033.484375,0.0036228010430932045,279.8122863769531,-2.348447742406279e-05,79.30268096923828,-0.120866559445858,-0.050481606274843216,0.6421917676925659,2741
1343A,湖南中医药大学,长沙,112.8908,28.1308,20180531,30.403225806451612,4079.0,6311.0,1641185.1358563092,-71578.35934531335,45,0.1271180361509323,317.1662292480469,297.0449523925781,99994.015625,0.0038718003779649734,283.5605163574219,-2.419732481939718e-05,79.60942840576172,-0.08643078804016113,-0.0932132750749588,0.6579383611679077,2295
1344A,沙坪,长沙,112.9958,28.3586,20180531,29.193548387096772,4043.0,6327.0,1645810.517767697,-43370.10594440412,69,0.19177280366420746,244.01162719726562,297.06951904296875,100031.1328125,0.00350254331715405,288.4298400878906,-2.340144055779092e-05,79.45808410644531,-0.1723785549402237,0.08403836190700531,0.6477211713790894,3730
1345A,广雅中学,广州,113.235,23.1422,20180531,29.86666666666667,4877.0,6366.0,1779926.644344306,-638513.0766011232,10,2.0030837059020996,191.03770446777344,299.8459777832031,100868.59375,0.0036942216102033854,250.1873016357422,-2.5013849153765477e-05,80.94476318359375,-0.38348814845085144,1.9660316705703735,0.4797362983226776,2454
1346A,市五中,广州,113.261,23.105,20180531,26.466666666666665,4883.0,6370.0,1783229.3119852962,-642265.1455298301,12,2.045541524887085,190.56167602539062,299.8421936035156,100901.5546875,0.003855430753901601,255.34153747558594,-2.640899401740171e-05,81.19461822509766,-0.37492457032203674,2.0108883380889893,0.4813733398914337,1591
1348A,广东商学院,广州,113.348,23.0916,20180531,27.887096774193548,4885.0,6384.0,1791913.6739360788,-642203.4202702653,2,2.0216569900512695,189.9457550048828,299.7345886230469,100847.03125,0.004282504785805941,255.9729766845703,-2.791632323351223e-05,82.37329864501953,-0.34916216135025024,1.991276741027832,0.49732503294944763,2583
1349A,市八十六中,广州,113.433,23.105,20180531,26.18333333333333,4883.0,6397.0,1799828.9540193873,-639129.114440192,4,1.9698396921157837,189.6123809814453,299.6398010253906,100764.2890625,0.004483732860535383,252.02850341796875,-2.8317454052739777e-05,83.51004791259766,-0.3289180397987366,1.9421846866607666,0.5010852813720703,2757
1350A,番禺中学,广州,113.352,22.9477,20180531,25.35,4908.0,6384.0,1795385.0410857117,-658456.8606221963,5,2.125331163406372,189.02378845214844,299.8095703125,100978.3515625,0.004606001544743776,278.9209899902344,-3.269282024120912e-05,82.30802154541016,-0.3333369791507721,2.0990281105041504,0.4594842195510864,3299
1351A,花都师范,广州,113.215,23.3917,20180531,27.5,4837.0,6362.0,1772680.8072781703,-610527.513703738,8,1.5277453660964966,196.45396423339844,299.65826416015625,100758.9609375,0.003290258115157485,218.96377563476562,-1.7527152522234246e-05,81.1982650756836,-0.43271374702453613,1.465184211730957,0.5107846260070801,2174
1352A,市监测站,广州,113.26,23.1331,20180531,27.05,4879.0,6370.0,1782533.0172905403,-639093.1125376975,18,2.0129599571228027,190.79798889160156,299.8143615722656,100849.0234375,0.003823830047622323,251.48863220214844,-2.5559304049238563e-05,81.22290802001953,-0.377111554145813,1.9773201942443848,0.5188852548599243,3580
1353A,九龙镇镇龙,广州,113.568,23.2783,20180531,27.225806451612907,4856.0,6419.0,1809092.018460161,-616977.6771734342,31,1.6361641883850098,192.59288024902344,299.12335205078125,99900.6328125,0.004118342883884907,207.69314575195312,-1.946757038240321e-05,84.49424743652344,-0.35670894384384155,1.5968067646026611,0.4909398555755615,3320
1354A,麓湖,广州,113.281,23.1569,20180531,27.838709677419356,4875.0,6373.0,1784050.704878677,-636009.7075422793,42,1.976422667503357,190.9576873779297,299.7510986328125,100758.578125,0.003874058136716485,246.9051513671875,-2.4842025595717132e-05,81.51512145996094,-0.3756749629974365,1.9403903484344482,0.4807656705379486,5655
1355A,帽峰山森林公园,广州,113.589,23.5538,20180531,31.603448275862068,4811.0,6422.0,1805120.3179413253,-585289.9502424741,32,1.245126724243164,200.82252502441406,298.9395446777344,99922.5625,0.0035743576008826494,175.9724578857422,-1.209104902955005e-05,85.39173126220703,-0.4425981640815735,1.1638072729110718,0.5125713348388672,3852
1356A,荔园,深圳,114.1063,22.5545,20180531,24.240740740740737,4971.0,6505.0,1877026.3238815232,-688883.0504781061,17,1.635086178779602,191.2510223388672,299.23291015625,100081.40625,0.0028453900013118982,307.3731384277344,-3.9387909055221826e-05,85.95684051513672,-0.3190089762210846,1.6036646366119385,0.40800461173057556,3328
1357A,洪湖,深圳,114.117,22.5625,20180531,20.83870967741936,4970.0,6507.0,1877886.0175927184,-687774.2830896026,19,1.601770043373108,191.29150390625,299.21881103515625,100066.2421875,0.0028589542489498854,306.929931640625,-3.994316648459062e-05,86.01518249511719,-0.31361833214759827,1.5707675218582153,0.4143769443035126,3931
1360A,盐田,深圳,114.263,22.5908,20180531,16.0,4966.0,6530.0,1891409.110164907,-681775.1348554111,53,1.6215616464614868,191.6820526123047,299.33172607421875,100111.953125,0.002482381649315357,308.49407958984375,-4.789162630913779e-05,86.78482818603516,-0.3283250629901886,1.587975025177002,0.41770005226135254,3026
1361A,龙岗,深圳,114.24,22.7267,20180531,20.258064516129032,4944.0,6526.0,1886131.9644586563,-666852.0938473677,45,1.4756497144699097,189.83082580566406,299.2903137207031,100179.84375,0.002761733951047063,279.677978515625,-3.62133578164503e-05,86.00382232666016,-0.25194457173347473,1.4539828300476074,0.4224112331867218,2111
1365A,梅沙,深圳,114.297,22.5978,20180531,21.0,4964.0,6536.0,1894547.138446405,-680328.9710565641,37,1.6287333965301514,191.94517517089844,299.3937683105469,100168.3984375,0.0023763806093484163,311.8637390136719,-5.0288312195334584e-05,86.66166687011719,-0.33709850907325745,1.5934669971466064,0.4142942726612091,5556
1366A,观澜,深圳,114.085,22.75,20180531,24.483870967741932,4940.0,6502.0,1870610.8124259734,-667179.3381729692,36,1.6310521364212036,187.4386749267578,299.3482360839844,100345.3046875,0.0028981277719140053,282.2139892578125,-3.0818526283837855e-05,84.80029296875,-0.2111579328775406,1.617326021194458,0.44003522396087646,3748
1368A,前山,珠海,113.495,22.2294,20180531,16.677419354838708,5023.0,6407.0,1824697.3375276867,-737140.7579818078,13,2.818901777267456,187.22897338867188,300.14923095703125,100798.0,0.0019616885110735893,400.1368713378906,-6.35616815998219e-05,85.53150939941406,-0.35470518469810486,2.7964961528778076,0.3655363917350769,2378
1370A,斗门,珠海,113.299,22.2281,20180531,16.112903225806452,5024.0,6376.0,1805613.1631006417,-740908.4287223646,6,2.642918348312378,186.7797088623047,300.02923583984375,100725.8828125,0.0026571128983050585,385.8014831542969,-6.0016740462742746e-05,85.6231918334961,-0.31199195981025696,2.624438524246216,0.3606445789337158,2883
1371A,湾梁,佛山,113.134,23.0048,20180531,28.36206896551724,4899.0,6349.0,1773092.539675008,-655937.0210990878,3,2.2090845108032227,190.54930114746094,299.931884765625,100888.015625,0.003190944902598858,270.7735595703125,-2.9505590646294877e-05,80.24805450439453,-0.40442997217178345,2.171748161315918,0.48453789949417114,3706
1372A,华材职中,佛山,113.105,23.0395,20180531,31.338709677419356,4894.0,6345.0,1769555.097814613,-652521.0692278756,9,2.1342933177948,190.4497528076172,299.9068298339844,100829.5078125,0.0031863003969192505,266.4401550292969,-2.8506083253887482e-05,80.06651306152344,-0.38709238171577454,2.0988967418670654,0.49928340315818787,2644
1373A,南海气象局,佛山,113.144,23.0467,20180531,27.983870967741932,4893.0,6351.0,1773170.864795451,-651000.6642423358,3,2.1483185291290283,190.62350463867188,299.9319763183594,100895.2265625,0.003297677030786872,265.3846130371094,-2.8297250537434593e-05,80.28651428222656,-0.3960401713848114,2.1114981174468994,0.47821244597435,3267
1374A,顺德苏岗,佛山,113.292,22.8054,20180531,17.580645161290324,4931.0,6375.0,1792622.344589788,-675687.2389491454,1,2.139341115951538,189.310302734375,299.79571533203125,100863.109375,0.00436423672363162,289.5005798339844,-3.3263411751249805e-05,82.01366424560547,-0.3460943102836609,2.1111605167388916,0.46319544315338135,3628
1375A,容桂街道办,佛山,113.257,22.7629,20180531,23.3,4938.0,6369.0,1790137.4797228905,-681142.5905131534,3,2.1029775142669678,189.6007080078125,299.79107666015625,100908.3203125,0.004278269596397877,290.2590637207031,-3.256050331401639e-05,81.74449920654297,-0.350724995136261,2.0735249519348145,0.4979802668094635,2149
